{"features": [{"geometry": {"coordinates": [-114.08031082082235, 51.04955283303071], "type": "Point"}, "properties": {"ADDRESS": "", "BOARD": "", "GRADES": "", "Latitude": "51.04955283303071", "Longitude": "-114.08031082082235", "NAME": "Mount Royal University - City Centre Campus", "POSTAL_CODE": "T2P3T5", "PROVINCIAL_CODE": "", "TYPE": "Post Secondary"}, "type": "Feature"}, {"geometry": {"coordinates": [-114.13012547930957, 51.075406674334126], "type": "Point"}, "properties": {"ADDRESS": "", "BOARD": "", "GRADES": "", "Latitude": "51.075406674334126", "Longitude": "-114.13012547930957", "NAME": "University of Calgary - Main Campus", "POSTAL_CODE": "", "PROVINCIAL_CODE": "", "TYPE": "Post Secondary"}, "type": "Feature"}, {"geometry": {"coordinates": [-114.08205798461157, 51.0422510032592], "type": "Point"}, "properties": {"ADDRESS": "West Annex, 2nd Floor 906-12 Avenue S.W.", "BOARD": "The Alberta Ballet Company", "GRADES": "Junior High/Senior High", "Latitude": "51.0422510032592", "Longitude": "-114.08205798461157", "NAME": "Alberta Ballet", "POSTAL_CODE": "T2R1K7", "PROVINCIAL_CODE": "1598", "TYPE": "Private School"}, "type": "Feature"}, {"geometry": {"coordinates": [-114.10843541386916, 51.019272213182916], "type": "Point"}, "properties": {"ADDRESS": "3904 - 20 Street S.W.", "BOARD": "The Calgary School Division", "GRADES": "Elementary/Junior High/Senior High", "Latitude": "51.019272213182916", "Longitude": "-114.10843541386916", "NAME": "Dr. Oakley", "POSTAL_CODE": "T2T4Z9", "PROVINCIAL_CODE": "9630", "TYPE": "Public School"}, "type": "Feature"}, {"geometry": {"coordinates": [-114.16132737614602, 51.11264854046467], "type": "Point"}, "properties": {"ADDRESS": "5500 Dalhart Road N.W.", "BOARD": "The Calgary School Division", "GRADES": "Junior High", "Latitude": "51.11264854046467", "Longitude": "-114.16132737614602", "NAME": "H. D. Cartwright", "POSTAL_CODE": "T3A1V6", "PROVINCIAL_CODE": "9660", "TYPE": "Public School"}, "type": "Feature"}, {"geometry": {"coordinates": [-114.08802212217178, 51.087173292014754], "type": "Point"}, "properties": {"ADDRESS": "599 Northmount Dr NW", "BOARD": "Asasa Learning", "GRADES": "Unknown", "Latitude": "51.087173292014754", "Longitude": "-114.08802212217178", "NAME": "Little Angels", "POSTAL_CODE": "T2K3J6", "PROVINCIAL_CODE": "1476", "TYPE": "Private School"}, "type": "Feature"}, {"geometry": {"coordinates": [-113.94984207732853, 50.89326386813093], "type": "Point"}, "properties": {"ADDRESS": "43 Auburn Meadows Blvd SE", "BOARD": "The Calgary Roman Catholic Separate School Division", "GRADES": "Elementary/Junior High", "Latitude": "50.89326386813093", "Longitude": "-113.94984207732853", "NAME": "Prince of Peace", "POSTAL_CODE": "T3M2C9", "PROVINCIAL_CODE": "2080", "TYPE": "Separate School"}, "type": "Feature"}, {"geometry": {"coordinates": [-113.96894283818581, 51.08907262467071], "type": "Point"}, "properties": {"ADDRESS": "577 Whiteridge Way N.E.", "BOARD": "The Calgary School Division", "GRADES": "Elementary/Junior High", "Latitude": "51.08907262467071", "Longitude": "-113.96894283818581", "NAME": "Annie Gale", "POSTAL_CODE": "T1Y4S8", "PROVINCIAL_CODE": "9686", "TYPE": "Public School"}, "type": "Feature"}, {"geometry": {"coordinates": [-114.11748390737336, 51.032556362057925], "type": "Point"}, "properties": {"ADDRESS": "2445 - 23 Avenue SW", "BOARD": "North Point School for Boys", "GRADES": "Unknown", "Latitude": "51.032556362057925", "Longitude": "-114.11748390737336", "NAME": "North Point School for Boys", "POSTAL_CODE": "T2T0W3", "PROVINCIAL_CODE": "2318", "TYPE": "Private School"}, "type": "Feature"}, {"geometry": {"coordinates": [-114.08802212217178, 51.087173292014754], "type": "Point"}, "properties": {"ADDRESS": "599 Northmount Drive N.W.", "BOARD": "Asasa Learning", "GRADES": "Elementary", "Latitude": "51.087173292014754", "Longitude": "-114.08802212217178", "NAME": "Asasa Academy", "POSTAL_CODE": "T2K3J6", "PROVINCIAL_CODE": "1623", "TYPE": "Private School"}, "type": "Feature"}, {"geometry": {"coordinates": [-114.03462489686252, 51.05510767608769], "type": "Point"}, "properties": {"ADDRESS": "414 - 11A Street N.E.", "BOARD": "Delta West Academy Society", "GRADES": "Elementary/Junior High/Senior High", "Latitude": "51.05510767608769", "Longitude": "-114.03462489686252", "NAME": "Delta West Academy", "POSTAL_CODE": "T2E4P3", "PROVINCIAL_CODE": "9972", "TYPE": "Private School"}, "type": "Feature"}, {"geometry": {"coordinates": [-114.10651983686331, 50.91692393582255], "type": "Point"}, "properties": {"ADDRESS": "367 Everstone Dr. SW", "BOARD": "The Calgary School Division", "GRADES": "Elementary", "Latitude": "50.91692393582255", "Longitude": "-114.10651983686331", "NAME": "Evergreen", "POSTAL_CODE": "T2Y0L3", "PROVINCIAL_CODE": "1500", "TYPE": "Public School"}, "type": "Feature"}, {"geometry": {"coordinates": [-114.19783220636697, 51.06789492906019], "type": "Point"}, "properties": {"ADDRESS": "700 - 77 Street S.W.", "BOARD": "Calgary French & International School Society", "GRADES": "Elementary/Junior High/Senior High", "Latitude": "51.06789492906019", "Longitude": "-114.19783220636697", "NAME": "Calgary French & International", "POSTAL_CODE": "T3H5R1", "PROVINCIAL_CODE": "796", "TYPE": "Private School"}, "type": "Feature"}, {"geometry": {"coordinates": [-114.02331873146171, 50.93954416895745], "type": "Point"}, "properties": {"ADDRESS": "605 Queensland Drive S.E.", "BOARD": "The Calgary School Division", "GRADES": "Elementary", "Latitude": "50.93954416895745", "Longitude": "-114.02331873146171", "NAME": "Haultain Memorial", "POSTAL_CODE": "T2J4S8", "PROVINCIAL_CODE": "9362", "TYPE": "Public School"}, "type": "Feature"}, {"geometry": {"coordinates": [-114.04701940847613, 50.90452434869364], "type": "Point"}, "properties": {"ADDRESS": "70 Sunmills Drive S.E.", "BOARD": "The Calgary Roman Catholic Separate School Division", "GRADES": "Elementary/Junior High", "Latitude": "50.90452434869364", "Longitude": "-114.04701940847613", "NAME": "Father James Whelihan", "POSTAL_CODE": "T2X2R5", "PROVINCIAL_CODE": "8729", "TYPE": "Separate School"}, "type": "Feature"}, {"geometry": {"coordinates": [-114.16296501747333, 51.09281180223239], "type": "Point"}, "properties": {"ADDRESS": "5315 Varsity Drive N.W.", "BOARD": "The Calgary School Division", "GRADES": "Elementary/Junior High", "Latitude": "51.09281180223239", "Longitude": "-114.16296501747333", "NAME": "F. E. Osborne", "POSTAL_CODE": "T3A1A7", "PROVINCIAL_CODE": "9651", "TYPE": "Public School"}, "type": "Feature"}, {"geometry": {"coordinates": [-114.14209579694007, 51.02324430721721], "type": "Point"}, "properties": {"ADDRESS": "3445 - 37 Street S.W.", "BOARD": "The Calgary School Division", "GRADES": "Junior High", "Latitude": "51.02324430721721", "Longitude": "-114.14209579694007", "NAME": "A. E. Cross", "POSTAL_CODE": "T3E3C2", "PROVINCIAL_CODE": "9638", "TYPE": "Public School"}, "type": "Feature"}, {"geometry": {"coordinates": [-114.09663654839983, 51.04092048201376], "type": "Point"}, "properties": {"ADDRESS": "1312 - 15 Street S.W.", "BOARD": "The Calgary Roman Catholic Separate School Division", "GRADES": "Elementary", "Latitude": "51.04092048201376", "Longitude": "-114.09663654839983", "NAME": "Sacred Heart Elementary", "POSTAL_CODE": "T3C0T6", "PROVINCIAL_CODE": "8705", "TYPE": "Separate School"}, "type": "Feature"}, {"geometry": {"coordinates": [-114.19135025966536, 51.08329961468408], "type": "Point"}, "properties": {"ADDRESS": "7311 - 34 Avenue N.W.", "BOARD": "The Calgary Roman Catholic Separate School Division", "GRADES": "Elementary/Junior High", "Latitude": "51.08329961468408", "Longitude": "-114.19135025966536", "NAME": "Our Lady of the Assumption", "POSTAL_CODE": "T3B1N5", "PROVINCIAL_CODE": "8701", "TYPE": "Separate School"}, "type": "Feature"}, {"geometry": {"coordinates": [-114.2242479372351, 51.03943008461902], "type": "Point"}, "properties": {"ADDRESS": "1677 - 93rd Street S.W.", "BOARD": "Calgary Academy Society", "GRADES": "Elementary/Junior High/Senior High", "Latitude": "51.03943008461902", "Longitude": "-114.2242479372351", "NAME": "Calgary Academy Collegiate", "POSTAL_CODE": "T3H0R3", "PROVINCIAL_CODE": "1015", "TYPE": "Private School"}, "type": "Feature"}, {"geometry": {"coordinates": [-114.04337260221402, 50.950917045308415], "type": "Point"}, "properties": {"ADDRESS": "809 Willingdon Blvd SE", "BOARD": "The Southern Francophone Education Region", "GRADES": "Elementary", "Latitude": "50.950917045308415", "Longitude": "-114.04337260221402", "NAME": "Notre-Dame de la Paix", "POSTAL_CODE": "T2J2B7", "PROVINCIAL_CODE": "1378", "TYPE": "Francophone"}, "type": "Feature"}, {"geometry": {"coordinates": [-114.01802196381442, 51.057001826427346], "type": "Point"}, "properties": {"ADDRESS": "802 Manning Road N.E.", "BOARD": "Columbia College Corp.", "GRADES": "Senior High", "Latitude": "51.057001826427346", "Longitude": "-114.01802196381442", "NAME": "Columbia College", "POSTAL_CODE": "T2E7N8", "PROVINCIAL_CODE": "9964", "TYPE": "Private School"}, "type": "Feature"}, {"geometry": {"coordinates": [-114.05765966286553, 51.000485415841375], "type": "Point"}, "properties": {"ADDRESS": "341 -  58 Avenue SE", "BOARD": "The Pembina Hills School Division", "GRADES": "Unknown", "Latitude": "51.000485415841375", "Longitude": "-114.05765966286553", "NAME": "Vista Virtual School - Calgary Writing Centre", "POSTAL_CODE": "", "PROVINCIAL_CODE": "1558", "TYPE": "Public School"}, "type": "Feature"}, {"geometry": {"coordinates": [-114.06060095936921, 51.095453050755296], "type": "Point"}, "properties": {"ADDRESS": "211 McKnight Blvd. NE", "BOARD": "Foundations for the Future Charter Academy Charter School Society", "GRADES": "Elementary/Junior High", "Latitude": "51.095453050755296", "Longitude": "-114.06060095936921", "NAME": "North Middle School Campus", "POSTAL_CODE": "T2E5S7", "PROVINCIAL_CODE": "1426", "TYPE": "Charter"}, "type": "Feature"}, {"geometry": {"coordinates": [-114.17874610460872, 51.13065691487295], "type": "Point"}, "properties": {"ADDRESS": "650 Hawkwood Boulevard N.W.", "BOARD": "The Calgary School Division", "GRADES": "Elementary", "Latitude": "51.13065691487295", "Longitude": "-114.17874610460872", "NAME": "Hawkwood", "POSTAL_CODE": "T3G2V7", "PROVINCIAL_CODE": "9273", "TYPE": "Public School"}, "type": "Feature"}, {"geometry": {"coordinates": [-113.94033027131916, 51.08598862372898], "type": "Point"}, "properties": {"ADDRESS": "6320 Temple Drive N.E.", "BOARD": "The Calgary School Division", "GRADES": "Elementary", "Latitude": "51.08598862372898", "Longitude": "-113.94033027131916", "NAME": "Annie Foote", "POSTAL_CODE": "T1Y5V5", "PROVINCIAL_CODE": "9377", "TYPE": "Public School"}, "type": "Feature"}, {"geometry": {"coordinates": [-113.97956254245209, 51.03005540580934], "type": "Point"}, "properties": {"ADDRESS": "3719 - 26 Avenue S.E.", "BOARD": "The Calgary Roman Catholic Separate School Division", "GRADES": "Elementary/Junior High", "Latitude": "51.03005540580934", "Longitude": "-113.97956254245209", "NAME": "Holy Cross Elementary Junior High", "POSTAL_CODE": "T2B0C6", "PROVINCIAL_CODE": "8704", "TYPE": "Separate School"}, "type": "Feature"}, {"geometry": {"coordinates": [-114.1114185416306, 51.063113295040075], "type": "Point"}, "properties": {"ADDRESS": "1233 - 21 Street N.W.", "BOARD": "The Calgary School Division", "GRADES": "Elementary", "Latitude": "51.063113295040075", "Longitude": "-114.1114185416306", "NAME": "Briar Hill", "POSTAL_CODE": "T2N2L8", "PROVINCIAL_CODE": "9205", "TYPE": "Public School"}, "type": "Feature"}, {"geometry": {"coordinates": [-114.05216040326846, 50.98710437807516], "type": "Point"}, "properties": {"ADDRESS": "7410 Blackfoot Trail S.E.", "BOARD": "West Island College Society of Alberta", "GRADES": "Junior High/Senior High", "Latitude": "50.98710437807516", "Longitude": "-114.05216040326846", "NAME": "West Island College", "POSTAL_CODE": "T2H1M5", "PROVINCIAL_CODE": "9913", "TYPE": "Private School"}, "type": "Feature"}, {"geometry": {"coordinates": [-114.16953888214768, 51.111168202162155], "type": "Point"}, "properties": {"ADDRESS": "6502 - 58 Street N.W.", "BOARD": "The Calgary School Division", "GRADES": "Elementary", "Latitude": "51.111168202162155", "Longitude": "-114.16953888214768", "NAME": "West Dalhousie", "POSTAL_CODE": "T3A2C8", "PROVINCIAL_CODE": "9344", "TYPE": "Public School"}, "type": "Feature"}, {"geometry": {"coordinates": [-113.94604456169037, 51.07384348029244], "type": "Point"}, "properties": {"ADDRESS": "6203 - 24 Avenue N.E.", "BOARD": "The Calgary School Division", "GRADES": "Elementary", "Latitude": "51.07384348029244", "Longitude": "-113.94604456169037", "NAME": "Douglas Harkness", "POSTAL_CODE": "T1Y2C5", "PROVINCIAL_CODE": "9347", "TYPE": "Public School"}, "type": "Feature"}, {"geometry": {"coordinates": [-113.98786382817913, 51.04553616438823], "type": "Point"}, "properties": {"ADDRESS": "904 - 32 St. S.E.", "BOARD": "The Calgary Roman Catholic Separate School Division", "GRADES": "Elementary", "Latitude": "51.04553616438823", "Longitude": "-113.98786382817913", "NAME": "Holy Family", "POSTAL_CODE": "T2A0Z1", "PROVINCIAL_CODE": "8503", "TYPE": "Separate School"}, "type": "Feature"}, {"geometry": {"coordinates": [-114.13622578607202, 51.02117977680219], "type": "Point"}, "properties": {"ADDRESS": "c/o Sir James Lougheed School 3519 - 36 Avenue SW", "BOARD": "The Calgary School Division", "GRADES": "Elementary", "Latitude": "51.02117977680219", "Longitude": "-114.13622578607202", "NAME": "All Boys Alternative Program", "POSTAL_CODE": "T3E1C2", "PROVINCIAL_CODE": "1579", "TYPE": "Public School"}, "type": "Feature"}, {"geometry": {"coordinates": [-113.98499738253085, 50.90621793658535], "type": "Point"}, "properties": {"ADDRESS": "16210 McKenzie Lake Way S.E.", "BOARD": "The Calgary School Division", "GRADES": "Elementary", "Latitude": "50.90621793658535", "Longitude": "-113.98499738253085", "NAME": "McKenzie Lake", "POSTAL_CODE": "T2Z1L7", "PROVINCIAL_CODE": "9385", "TYPE": "Public School"}, "type": "Feature"}, {"geometry": {"coordinates": [-113.98986385894905, 50.94121168049701], "type": "Point"}, "properties": {"ADDRESS": "2919 Douglasdale Boulevard S.E", "BOARD": "The Calgary Roman Catholic Separate School Division", "GRADES": "Elementary/Junior High", "Latitude": "50.94121168049701", "Longitude": "-113.98986385894905", "NAME": "Monsignor J. S. Smith", "POSTAL_CODE": "T2Z2H9", "PROVINCIAL_CODE": "313", "TYPE": "Separate School"}, "type": "Feature"}, {"geometry": {"coordinates": [-114.15894109066254, 51.02976335703151], "type": "Point"}, "properties": {"ADDRESS": "5029 - 26 Avenue S.W.", "BOARD": "The Palliser School Division", "GRADES": "Junior High/Senior High", "Latitude": "51.02976335703151", "Longitude": "-114.15894109066254", "NAME": "Calgary Christian High", "POSTAL_CODE": "T3E0R5", "PROVINCIAL_CODE": "9978", "TYPE": "Public School"}, "type": "Feature"}, {"geometry": {"coordinates": [-114.14772416944314, 51.016362824091786], "type": "Point"}, "properties": {"ADDRESS": "4331 - 41 Avenue S.W.", "BOARD": "The Calgary Roman Catholic Separate School Division", "GRADES": "Elementary", "Latitude": "51.016362824091786", "Longitude": "-114.14772416944314", "NAME": "St. Andrew", "POSTAL_CODE": "T3E1G2", "PROVINCIAL_CODE": "8508", "TYPE": "Separate School"}, "type": "Feature"}, {"geometry": {"coordinates": [-114.05330502890665, 50.97529024119396], "type": "Point"}, "properties": {"ADDRESS": "8710 Ancourt Rd. SE", "BOARD": "Foundations for the Future Charter Academy Charter School Society", "GRADES": "Elementary/Junior High", "Latitude": "50.97529024119396", "Longitude": "-114.05330502890665", "NAME": "South Middle School Campus", "POSTAL_CODE": "T2H1V2", "PROVINCIAL_CODE": "1351", "TYPE": "Charter"}, "type": "Feature"}, {"geometry": {"coordinates": [-114.10191628711746, 51.05620243460679], "type": "Point"}, "properties": {"ADDRESS": "512 - 18 Street N.W.", "BOARD": "The Calgary School Division", "GRADES": "Junior High/Senior High", "Latitude": "51.05620243460679", "Longitude": "-114.10191628711746", "NAME": "Queen Elizabeth High", "POSTAL_CODE": "T2N2G5", "PROVINCIAL_CODE": "9806", "TYPE": "Public School"}, "type": "Feature"}, {"geometry": {"coordinates": [-114.01830826163983, 51.063374985054146], "type": "Point"}, "properties": {"ADDRESS": "1229 - 17A Street N.E.", "BOARD": "The Calgary School Division", "GRADES": "Elementary", "Latitude": "51.063374985054146", "Longitude": "-114.01830826163983", "NAME": "Belfast", "POSTAL_CODE": "T2E4V4", "PROVINCIAL_CODE": "9203", "TYPE": "Public School"}, "type": "Feature"}, {"geometry": {"coordinates": [-113.96934777766288, 51.06303244891205], "type": "Point"}, "properties": {"ADDRESS": "4589 Marbank Drive N.E.", "BOARD": "The Calgary Roman Catholic Separate School Division", "GRADES": "Elementary", "Latitude": "51.06303244891205", "Longitude": "-113.96934777766288", "NAME": "St. Mark Elementary", "POSTAL_CODE": "T2A3V8", "PROVINCIAL_CODE": "8536", "TYPE": "Separate School"}, "type": "Feature"}, {"geometry": {"coordinates": [-114.06069973692749, 51.16714955538142], "type": "Point"}, "properties": {"ADDRESS": "135 Covepark Square NE", "BOARD": "The Calgary School Division", "GRADES": "Elementary/Junior High", "Latitude": "51.16714955538142", "Longitude": "-114.06069973692749", "NAME": "Nose Creek", "POSTAL_CODE": "T3K5W9", "PROVINCIAL_CODE": "1674", "TYPE": "Public School"}, "type": "Feature"}, {"geometry": {"coordinates": [-114.13749373808025, 51.04817390993862], "type": "Point"}, "properties": {"ADDRESS": "1 Tamarac Crescent S.W.", "BOARD": "Hellenic Society of Calgary and District", "GRADES": "Senior High", "Latitude": "51.04817390993862", "Longitude": "-114.13749373808025", "NAME": "Greek Community", "POSTAL_CODE": "T3C3B7", "PROVINCIAL_CODE": "9957", "TYPE": "Private School"}, "type": "Feature"}, {"geometry": {"coordinates": [-114.03330800797715, 50.92476417668588], "type": "Point"}, "properties": {"ADDRESS": "253 Parkland Way SE", "BOARD": "The Calgary School Division", "GRADES": "Elementary", "Latitude": "50.92476417668588", "Longitude": "-114.03330800797715", "NAME": "Prince of Wales", "POSTAL_CODE": "T2J3Y9", "PROVINCIAL_CODE": "9341", "TYPE": "Public School"}, "type": "Feature"}, {"geometry": {"coordinates": [-113.95218879574247, 51.041795332387096], "type": "Point"}, "properties": {"ADDRESS": "5645 Pensacola Crescent S.E.", "BOARD": "The Calgary School Division", "GRADES": "Elementary", "Latitude": "51.041795332387096", "Longitude": "-113.95218879574247", "NAME": "Penbrooke Meadows", "POSTAL_CODE": "T2A2G4", "PROVINCIAL_CODE": "9356", "TYPE": "Public School"}, "type": "Feature"}, {"geometry": {"coordinates": [-113.92854831707838, 51.131683955067594], "type": "Point"}, "properties": {"ADDRESS": "40 Saddlelake Way NE", "BOARD": "The Calgary School Division", "GRADES": "Elementary", "Latitude": "51.131683955067594", "Longitude": "-113.92854831707838", "NAME": "Hugh A. Bennett", "POSTAL_CODE": "T3J0V1", "PROVINCIAL_CODE": "2056", "TYPE": "Public School"}, "type": "Feature"}, {"geometry": {"coordinates": [-114.16106571150428, 51.084544694949244], "type": "Point"}, "properties": {"ADDRESS": "3525 50 Street NW", "BOARD": "The Calgary School Division", "GRADES": "Elementary/Junior High/Senior High", "Latitude": "51.084544694949244", "Longitude": "-114.16106571150428", "NAME": "Christine Meikle", "POSTAL_CODE": "T3A2Y5", "PROVINCIAL_CODE": "9037", "TYPE": "Public School"}, "type": "Feature"}, {"geometry": {"coordinates": [-114.05925815681651, 50.953621597116076], "type": "Point"}, "properties": {"ADDRESS": "11020 Fairmount Drive S.E.", "BOARD": "The Calgary Roman Catholic Separate School Division", "GRADES": "Elementary", "Latitude": "50.953621597116076", "Longitude": "-114.05925815681651", "NAME": "St. William", "POSTAL_CODE": "T2J0T1", "PROVINCIAL_CODE": "8529", "TYPE": "Separate School"}, "type": "Feature"}, {"geometry": {"coordinates": [-114.08826216557271, 50.99074473227965], "type": "Point"}, "properties": {"ADDRESS": "1112 - 70 Avenue S.W.", "BOARD": "The Canadian Montessori School Ltd.", "GRADES": "Unknown", "Latitude": "50.99074473227965", "Longitude": "-114.08826216557271", "NAME": "Canadian Montessori School West", "POSTAL_CODE": "T2V0P6", "PROVINCIAL_CODE": "1686", "TYPE": "Private School"}, "type": "Feature"}, {"geometry": {"coordinates": [-114.09037421858338, 51.06329609568463], "type": "Point"}, "properties": {"ADDRESS": "", "BOARD": "", "GRADES": "", "Latitude": "51.06329609568463", "Longitude": "-114.09037421858338", "NAME": "Alberta University of the Arts", "POSTAL_CODE": "", "PROVINCIAL_CODE": "", "TYPE": "Post Secondary"}, "type": "Feature"}, {"geometry": {"coordinates": [-114.0792951385963, 51.01010774903789], "type": "Point"}, "properties": {"ADDRESS": "4811 6th St. SW", "BOARD": "The Calgary Roman Catholic Separate School Division", "GRADES": "Elementary/Junior High/Senior High", "Latitude": "51.01010774903789", "Longitude": "-114.0792951385963", "NAME": "St. Anthony", "POSTAL_CODE": "T2S2N5", "PROVINCIAL_CODE": "8515", "TYPE": "Separate School"}, "type": "Feature"}, {"geometry": {"coordinates": [-114.24543064926253, 51.11778706209014], "type": "Point"}, "properties": {"ADDRESS": "990 Tuscany Drive N.W.", "BOARD": "The Calgary School Division", "GRADES": "Elementary", "Latitude": "51.11778706209014", "Longitude": "-114.24543064926253", "NAME": "Tuscany", "POSTAL_CODE": "T3L2T4", "PROVINCIAL_CODE": "1335", "TYPE": "Public School"}, "type": "Feature"}, {"geometry": {"coordinates": [-114.08017778127906, 51.11759752153549], "type": "Point"}, "properties": {"ADDRESS": "7423 - 10 Street N.W.", "BOARD": "The Calgary Roman Catholic Separate School Division", "GRADES": "Elementary", "Latitude": "51.11759752153549", "Longitude": "-114.08017778127906", "NAME": "St. Henry Elementary", "POSTAL_CODE": "T2K1H5", "PROVINCIAL_CODE": "8534", "TYPE": "Separate School"}, "type": "Feature"}, {"geometry": {"coordinates": [-114.11748390737336, 51.032556362057925], "type": "Point"}, "properties": {"ADDRESS": "2445 23 Ave SW", "BOARD": "North Point School for Boys", "GRADES": "Elementary/Junior High/Senior High", "Latitude": "51.032556362057925", "Longitude": "-114.11748390737336", "NAME": "North Point School for Boys", "POSTAL_CODE": "T2T0W3", "PROVINCIAL_CODE": "1982", "TYPE": "Private School"}, "type": "Feature"}, {"geometry": {"coordinates": [-114.15699353413262, 51.133514395054824], "type": "Point"}, "properties": {"ADDRESS": "250 Edgepark Boulevard N.W.", "BOARD": "The Calgary School Division", "GRADES": "Elementary/Junior High", "Latitude": "51.133514395054824", "Longitude": "-114.15699353413262", "NAME": "Tom Baines", "POSTAL_CODE": "T3A3S2", "PROVINCIAL_CODE": "9690", "TYPE": "Public School"}, "type": "Feature"}, {"geometry": {"coordinates": [-114.11352046374272, 51.007927879674035], "type": "Point"}, "properties": {"ADDRESS": "5111 - 21 Street S.W.", "BOARD": "The Calgary School Division", "GRADES": "Junior High/Senior High", "Latitude": "51.007927879674035", "Longitude": "-114.11352046374272", "NAME": "Central Memorial High", "POSTAL_CODE": "T3E1R9", "PROVINCIAL_CODE": "9823", "TYPE": "Public School"}, "type": "Feature"}, {"geometry": {"coordinates": [-114.00829174988903, 51.069616982582104], "type": "Point"}, "properties": {"ADDRESS": "2050 - 21 Street N.E.", "BOARD": "Renfrew Educational Services Society", "GRADES": "Elementary", "Latitude": "51.069616982582104", "Longitude": "-114.00829174988903", "NAME": "Renfrew Educational Services-Janice McTighe Centre", "POSTAL_CODE": "T2E6S5", "PROVINCIAL_CODE": "249", "TYPE": "Private School"}, "type": "Feature"}, {"geometry": {"coordinates": [-114.08321298447541, 50.97565830736244], "type": "Point"}, "properties": {"ADDRESS": "8706 Elbow Drive S.W.", "BOARD": "The Calgary School Division", "GRADES": "Elementary/Junior High", "Latitude": "50.97565830736244", "Longitude": "-114.08321298447541", "NAME": "Woodman", "POSTAL_CODE": "T2V1L2", "PROVINCIAL_CODE": "9631", "TYPE": "Public School"}, "type": "Feature"}, {"geometry": {"coordinates": [-114.01887042651035, 50.93228729996409], "type": "Point"}, "properties": {"ADDRESS": "963 Queensland Drive S.E.", "BOARD": "The Calgary School Division", "GRADES": "Elementary/Junior High", "Latitude": "50.93228729996409", "Longitude": "-114.01887042651035", "NAME": "Wilma Hansen", "POSTAL_CODE": "", "PROVINCIAL_CODE": "9685", "TYPE": "Public School"}, "type": "Feature"}, {"geometry": {"coordinates": [-113.98187987887539, 50.92379832238602], "type": "Point"}, "properties": {"ADDRESS": "312 Mt. Douglas Close S.E.", "BOARD": "The Calgary School Division", "GRADES": "Elementary/Junior High", "Latitude": "50.92379832238602", "Longitude": "-113.98187987887539", "NAME": "Mountain Park", "POSTAL_CODE": "T2Z4Y1", "PROVINCIAL_CODE": "1333", "TYPE": "Public School"}, "type": "Feature"}, {"geometry": {"coordinates": [-114.08468438422027, 50.98634062987373], "type": "Point"}, "properties": {"ADDRESS": "910 - 75 Avenue S.W.", "BOARD": "The Calgary School Division", "GRADES": "Senior High", "Latitude": "50.98634062987373", "Longitude": "-114.08468438422027", "NAME": "Henry Wise Wood High", "POSTAL_CODE": "T2V0S6", "PROVINCIAL_CODE": "9836", "TYPE": "Public School"}, "type": "Feature"}, {"geometry": {"coordinates": [-113.98683102030564, 51.03220045690152], "type": "Point"}, "properties": {"ADDRESS": "2031 Sable Drive S.E.", "BOARD": "Almadina School Society", "GRADES": "Elementary", "Latitude": "51.03220045690152", "Longitude": "-113.98683102030564", "NAME": "Almadina Language Charter Academy, Mountain View Campus", "POSTAL_CODE": "T2B1R9", "PROVINCIAL_CODE": "6007", "TYPE": "Charter"}, "type": "Feature"}, {"geometry": {"coordinates": [-114.06221327740165, 51.11837590313499], "type": "Point"}, "properties": {"ADDRESS": "320 - 72 Avenue N.E.", "BOARD": "The Calgary Roman Catholic Separate School Division", "GRADES": "Elementary", "Latitude": "51.11837590313499", "Longitude": "-114.06221327740165", "NAME": "St. Hubert Elementary", "POSTAL_CODE": "T2K5J3", "PROVINCIAL_CODE": "8502", "TYPE": "Separate School"}, "type": "Feature"}, {"geometry": {"coordinates": [-113.96632369820337, 51.11569222014252], "type": "Point"}, "properties": {"ADDRESS": "500 Martindale Blvd. N.E.", "BOARD": "The Calgary School Division", "GRADES": "Elementary/Junior High", "Latitude": "51.11569222014252", "Longitude": "-113.96632369820337", "NAME": "Crossing Park", "POSTAL_CODE": "T3J4W8", "PROVINCIAL_CODE": "536", "TYPE": "Public School"}, "type": "Feature"}, {"geometry": {"coordinates": [-114.04578944271555, 51.03318858802252], "type": "Point"}, "properties": {"ADDRESS": "2223 Spiller Road SE", "BOARD": "Janus Academy Society", "GRADES": "Elementary/Junior High", "Latitude": "51.03318858802252", "Longitude": "-114.04578944271555", "NAME": "Janus Academy", "POSTAL_CODE": "T2G4G9", "PROVINCIAL_CODE": "32", "TYPE": "Private School"}, "type": "Feature"}, {"geometry": {"coordinates": [-114.18077646290406, 51.045967586222176], "type": "Point"}, "properties": {"ADDRESS": "875 Strathcona Drive S.W.", "BOARD": "The Calgary School Division", "GRADES": "Elementary", "Latitude": "51.045967586222176", "Longitude": "-114.18077646290406", "NAME": "Olympic Heights", "POSTAL_CODE": "T3H2Z7", "PROVINCIAL_CODE": "9382", "TYPE": "Public School"}, "type": "Feature"}, {"geometry": {"coordinates": [-113.96154050579484, 51.10488651241559], "type": "Point"}, "properties": {"ADDRESS": "100 Castlebrook Drive N.E.", "BOARD": "The Calgary School Division", "GRADES": "Elementary", "Latitude": "51.10488651241559", "Longitude": "-113.96154050579484", "NAME": "O.S. Geiger", "POSTAL_CODE": "T3J2J4", "PROVINCIAL_CODE": "9271", "TYPE": "Public School"}, "type": "Feature"}, {"geometry": {"coordinates": [-113.9372307549781, 50.92115491375319], "type": "Point"}, "properties": {"ADDRESS": "1100 New Brighton Drive SE", "BOARD": "The Calgary Roman Catholic Separate School Division", "GRADES": "Elementary", "Latitude": "50.92115491375319", "Longitude": "-113.9372307549781", "NAME": "St. Marguerite", "POSTAL_CODE": "T2Z0W1", "PROVINCIAL_CODE": "2082", "TYPE": "Separate School"}, "type": "Feature"}, {"geometry": {"coordinates": [-113.93598898444304, 50.910583189769525], "type": "Point"}, "properties": {"ADDRESS": "855 Copperfield Blvd SE", "BOARD": "The Calgary Roman Catholic Separate School Division", "GRADES": "Elementary/Junior High", "Latitude": "50.910583189769525", "Longitude": "-113.93598898444304", "NAME": "St. Isabella", "POSTAL_CODE": "T2Z4W8", "PROVINCIAL_CODE": "1680", "TYPE": "Separate School"}, "type": "Feature"}, {"geometry": {"coordinates": [-114.1147539295334, 50.99907702433947], "type": "Point"}, "properties": {"ADDRESS": "6304 Larkspur Way S.W.", "BOARD": "Calgary Girls' School Society", "GRADES": "Elementary/Junior High", "Latitude": "50.99907702433947", "Longitude": "-114.1147539295334", "NAME": "Calgary Girls Charter", "POSTAL_CODE": "T3E5P7", "PROVINCIAL_CODE": "1128", "TYPE": "Charter"}, "type": "Feature"}, {"geometry": {"coordinates": [-114.13318451793666, 50.958398763710726], "type": "Point"}, "properties": {"ADDRESS": "10631 Oakfield Drive S.W.", "BOARD": "The Calgary School Division", "GRADES": "Elementary", "Latitude": "50.958398763710726", "Longitude": "-114.13318451793666", "NAME": "Cedarbrae", "POSTAL_CODE": "T2W2T3", "PROVINCIAL_CODE": "9338", "TYPE": "Public School"}, "type": "Feature"}, {"geometry": {"coordinates": [-114.12219422659528, 50.91437381106913], "type": "Point"}, "properties": {"ADDRESS": "322 Everridge Dr. S.W.", "BOARD": "The Calgary Roman Catholic Separate School Division", "GRADES": "Elementary", "Latitude": "50.91437381106913", "Longitude": "-114.12219422659528", "NAME": "Our Lady of the Evergreens Catholic", "POSTAL_CODE": "T2Y0L5", "PROVINCIAL_CODE": "1485", "TYPE": "Separate School"}, "type": "Feature"}, {"geometry": {"coordinates": [-114.11654589992118, 51.015302380710715], "type": "Point"}, "properties": {"ADDRESS": "4414 Crowchild Trail S.W.", "BOARD": "The Palliser School Division", "GRADES": "Elementary", "Latitude": "51.015302380710715", "Longitude": "-114.11654589992118", "NAME": "Master's Academy", "POSTAL_CODE": "T2T5J4", "PROVINCIAL_CODE": "30", "TYPE": "Public School"}, "type": "Feature"}, {"geometry": {"coordinates": [-114.22206925363544, 51.14557279979408], "type": "Point"}, "properties": {"ADDRESS": "9100 Royal Birch Blvd NW", "BOARD": "The Calgary School Division", "GRADES": "Elementary", "Latitude": "51.14557279979408", "Longitude": "-114.22206925363544", "NAME": "Royal Oak", "POSTAL_CODE": "T3G5R8", "PROVINCIAL_CODE": "1519", "TYPE": "Public School"}, "type": "Feature"}, {"geometry": {"coordinates": [-114.08826216557271, 50.99074473227965], "type": "Point"}, "properties": {"ADDRESS": "1112 - 70 Avenue S.W.", "BOARD": "The Canadian Montessori School Ltd.", "GRADES": "Unknown", "Latitude": "50.99074473227965", "Longitude": "-114.08826216557271", "NAME": "Canadian Montessori School North", "POSTAL_CODE": "T2V0P6", "PROVINCIAL_CODE": "1685", "TYPE": "Private School"}, "type": "Feature"}, {"geometry": {"coordinates": [-114.08648879230059, 50.943846463439655], "type": "Point"}, "properties": {"ADDRESS": "11 Canata Close S.W.", "BOARD": "The Calgary Roman Catholic Separate School Division", "GRADES": "Elementary", "Latitude": "50.943846463439655", "Longitude": "-114.08648879230059", "NAME": "St. Catherine Elementary", "POSTAL_CODE": "T2W1P6", "PROVINCIAL_CODE": "8533", "TYPE": "Separate School"}, "type": "Feature"}, {"geometry": {"coordinates": [-114.04458790845642, 50.961159377722154], "type": "Point"}, "properties": {"ADDRESS": "725 Mapleton Drive S.E.", "BOARD": "The Calgary School Division", "GRADES": "Elementary/Junior High", "Latitude": "50.961159377722154", "Longitude": "-114.04458790845642", "NAME": "R. T. Alderman", "POSTAL_CODE": "T2J1S1", "PROVINCIAL_CODE": "9653", "TYPE": "Public School"}, "type": "Feature"}, {"geometry": {"coordinates": [-113.95297486813038, 51.08698833787567], "type": "Point"}, "properties": {"ADDRESS": "5612 Templehill Road N.E.", "BOARD": "The Calgary School Division", "GRADES": "Elementary", "Latitude": "51.08698833787567", "Longitude": "-113.95297486813038", "NAME": "Guy Weadick", "POSTAL_CODE": "T1Y4W7", "PROVINCIAL_CODE": "9343", "TYPE": "Public School"}, "type": "Feature"}, {"geometry": {"coordinates": [-114.13472931114624, 51.028193421126915], "type": "Point"}, "properties": {"ADDRESS": "3008 - 33 Street S.W.", "BOARD": "The Calgary School Division", "GRADES": "Elementary", "Latitude": "51.028193421126915", "Longitude": "-114.13472931114624", "NAME": "Killarney", "POSTAL_CODE": "T3E2T9", "PROVINCIAL_CODE": "9104", "TYPE": "Public School"}, "type": "Feature"}, {"geometry": {"coordinates": [-114.09977254223199, 51.01529661742848], "type": "Point"}, "properties": {"ADDRESS": "4330 - 16 Street S.W.", "BOARD": "Rundle College Society", "GRADES": "Elementary/Junior High/Senior High", "Latitude": "51.01529661742848", "Longitude": "-114.09977254223199", "NAME": "Rundle College Academy", "POSTAL_CODE": "T2T4H9", "PROVINCIAL_CODE": "5297", "TYPE": "Private School"}, "type": "Feature"}, {"geometry": {"coordinates": [-114.06762549130704, 51.125732637866925], "type": "Point"}, "properties": {"ADDRESS": "150 Beddington Blvd. NE", "BOARD": "Calgary Chinese Alliance School Society", "GRADES": "Senior High", "Latitude": "51.125732637866925", "Longitude": "-114.06762549130704", "NAME": "Calgary Chinese Alliance", "POSTAL_CODE": "T3K2E2", "PROVINCIAL_CODE": "5001", "TYPE": "Private School"}, "type": "Feature"}, {"geometry": {"coordinates": [-114.06127034224946, 50.945448184044736], "type": "Point"}, "properties": {"ADDRESS": "12011 Bonaventure Drive S.E.", "BOARD": "The Calgary School Division", "GRADES": "Elementary", "Latitude": "50.945448184044736", "Longitude": "-114.06127034224946", "NAME": "Sam Livingston", "POSTAL_CODE": "T2J3G7", "PROVINCIAL_CODE": "9354", "TYPE": "Public School"}, "type": "Feature"}, {"geometry": {"coordinates": [-113.97218998359857, 51.083686045048424], "type": "Point"}, "properties": {"ADDRESS": "3428 - 42 Street N.E.", "BOARD": "The Calgary School Division", "GRADES": "Elementary", "Latitude": "51.083686045048424", "Longitude": "-113.97218998359857", "NAME": "Chief Justice Milvain", "POSTAL_CODE": "T1Y6A3", "PROVINCIAL_CODE": "9361", "TYPE": "Public School"}, "type": "Feature"}, {"geometry": {"coordinates": [-113.92984856718641, 51.05662519516456], "type": "Point"}, "properties": {"ADDRESS": "320 Abergale Drive N.E.", "BOARD": "The Calgary School Division", "GRADES": "Elementary", "Latitude": "51.05662519516456", "Longitude": "-113.92984856718641", "NAME": "Abbeydale", "POSTAL_CODE": "T2A6W2", "PROVINCIAL_CODE": "9376", "TYPE": "Public School"}, "type": "Feature"}, {"geometry": {"coordinates": [-114.24348010970016, 51.122836167480706], "type": "Point"}, "properties": {"ADDRESS": "65 Tuscany Hills Road N.W.", "BOARD": "The Calgary School Division", "GRADES": "Elementary/Junior High", "Latitude": "51.122836167480706", "Longitude": "-114.24348010970016", "NAME": "Twelve Mile Coulee", "POSTAL_CODE": "T3L0C7", "PROVINCIAL_CODE": "1678", "TYPE": "Public School"}, "type": "Feature"}, {"geometry": {"coordinates": [-114.0101364019379, 51.09213522426762], "type": "Point"}, "properties": {"ADDRESS": "2003 McKnight Boulevard N.E.", "BOARD": "The Palliser School Division", "GRADES": "Elementary/Junior High/Senior High", "Latitude": "51.09213522426762", "Longitude": "-114.0101364019379", "NAME": "Heritage Christian Academy", "POSTAL_CODE": "T2E6L2", "PROVINCIAL_CODE": "9906", "TYPE": "Public School"}, "type": "Feature"}, {"geometry": {"coordinates": [-114.00047736588895, 51.08758987045084], "type": "Point"}, "properties": {"ADDRESS": "2612 - 37 Avenue N.E.", "BOARD": "The Palliser School Division", "GRADES": "Elementary/Junior High/Senior High", "Latitude": "51.08758987045084", "Longitude": "-114.00047736588895", "NAME": "Calgary Islamic School, Akram Jomaa Campus", "POSTAL_CODE": "T1Y5L2", "PROVINCIAL_CODE": "9969", "TYPE": "Public School"}, "type": "Feature"}, {"geometry": {"coordinates": [-114.1877229326153, 51.146340321967244], "type": "Point"}, "properties": {"ADDRESS": "730 Citadel Way, N.W.", "BOARD": "The Calgary Roman Catholic Separate School Division", "GRADES": "Elementary/Junior High", "Latitude": "51.146340321967244", "Longitude": "-114.1877229326153", "NAME": "St. Brigid", "POSTAL_CODE": "T3G5S6", "PROVINCIAL_CODE": "1119", "TYPE": "Separate School"}, "type": "Feature"}, {"geometry": {"coordinates": [-114.11383245286675, 50.94836264574441], "type": "Point"}, "properties": {"ADDRESS": "2266 Woodpark Avenue SW", "BOARD": "The Calgary School Division", "GRADES": "Elementary/Junior High/Senior High", "Latitude": "50.94836264574441", "Longitude": "-114.11383245286675", "NAME": "William Roper Hull", "POSTAL_CODE": "T2W2Z8", "PROVINCIAL_CODE": "9033", "TYPE": "Public School"}, "type": "Feature"}, {"geometry": {"coordinates": [-114.2156565666239, 51.120089086344315], "type": "Point"}, "properties": {"ADDRESS": "50 Scurfield Way N.W.", "BOARD": "The Calgary School Division", "GRADES": "Elementary", "Latitude": "51.120089086344315", "Longitude": "-114.2156565666239", "NAME": "Scenic Acres", "POSTAL_CODE": "T3L1T2", "PROVINCIAL_CODE": "597", "TYPE": "Public School"}, "type": "Feature"}, {"geometry": {"coordinates": [-113.94127347852033, 51.12953723451825], "type": "Point"}, "properties": {"ADDRESS": "6270 Saddlehorn Dr. N.E.", "BOARD": "The Calgary Roman Catholic Separate School Division", "GRADES": "Elementary/Junior High", "Latitude": "51.12953723451825", "Longitude": "-113.94127347852033", "NAME": "Light of Christ Catholic", "POSTAL_CODE": "T3J0L8", "PROVINCIAL_CODE": "1486", "TYPE": "Separate School"}, "type": "Feature"}, {"geometry": {"coordinates": [-114.02925048065653, 51.040023557790406], "type": "Point"}, "properties": {"ADDRESS": "1423 8 Ave SE", "BOARD": "The Gilbertine Institute of Catholic Studies", "GRADES": "Unknown", "Latitude": "51.040023557790406", "Longitude": "-114.02925048065653", "NAME": "The Holy House of Our Lady and St. John", "POSTAL_CODE": "T2G0N1", "PROVINCIAL_CODE": "2338", "TYPE": "Private School"}, "type": "Feature"}, {"geometry": {"coordinates": [-114.2332661890989, 51.07923420646401], "type": "Point"}, "properties": {"ADDRESS": "10101 - 2nd Avenue S.W.", "BOARD": "Alberta Conference of 7th Day Adventist Church", "GRADES": "Elementary/Junior High/Senior High", "Latitude": "51.07923420646401", "Longitude": "-114.2332661890989", "NAME": "Chinook Winds Adventist Academy", "POSTAL_CODE": "T3B5T2", "PROVINCIAL_CODE": "9916", "TYPE": "Private School"}, "type": "Feature"}, {"geometry": {"coordinates": [-113.9276608348846, 51.06185379754266], "type": "Point"}, "properties": {"ADDRESS": "1005 Abbotsford Drive N.E.", "BOARD": "The Calgary Roman Catholic Separate School Division", "GRADES": "Elementary", "Latitude": "51.06185379754266", "Longitude": "-113.9276608348846", "NAME": "St. Kateri Tekakwitha", "POSTAL_CODE": "T2A7N5", "PROVINCIAL_CODE": "8552", "TYPE": "Separate School"}, "type": "Feature"}, {"geometry": {"coordinates": [-114.07444393789527, 51.00470399835142], "type": "Point"}, "properties": {"ADDRESS": "5505 4A St. SW", "BOARD": "The Calgary School Division", "GRADES": "Elementary/Junior High/Senior High", "Latitude": "51.00470399835142", "Longitude": "-114.07444393789527", "NAME": "Calgary Home Education", "POSTAL_CODE": "T2V0Z7", "PROVINCIAL_CODE": "9425", "TYPE": "Public School"}, "type": "Feature"}, {"geometry": {"coordinates": [-114.2169018246824, 51.16003783455298], "type": "Point"}, "properties": {"ADDRESS": "", "BOARD": "", "GRADES": "", "Latitude": "51.16003783455298", "Longitude": "-114.2169018246824", "NAME": "University of Calgary - Spy Hill Campus", "POSTAL_CODE": "T3R1J3", "PROVINCIAL_CODE": "", "TYPE": "Post Secondary"}, "type": "Feature"}, {"geometry": {"coordinates": [-114.21512403191952, 51.111596016800426], "type": "Point"}, "properties": {"ADDRESS": "220 Scenic Acres Drive NW", "BOARD": "The Southern Francophone Education Region", "GRADES": "Elementary", "Latitude": "51.111596016800426", "Longitude": "-114.21512403191952", "NAME": "\u00c3\u2030cole du Nouveau-Monde", "POSTAL_CODE": "T3L0E7", "PROVINCIAL_CODE": "2149", "TYPE": "Francophone"}, "type": "Feature"}, {"geometry": {"coordinates": [-114.0866481919576, 50.957639591895244], "type": "Point"}, "properties": {"ADDRESS": "23 Sackville Drive S.W.", "BOARD": "The Calgary School Division", "GRADES": "Elementary/Junior High", "Latitude": "50.957639591895244", "Longitude": "-114.0866481919576", "NAME": "Harold Panabaker", "POSTAL_CODE": "T2W0W3", "PROVINCIAL_CODE": "9643", "TYPE": "Public School"}, "type": "Feature"}, {"geometry": {"coordinates": [-114.21642442364357, 51.122028403688844], "type": "Point"}, "properties": {"ADDRESS": "8887 Scurfield Drive NW", "BOARD": "The Calgary Roman Catholic Separate School Division", "GRADES": "Elementary", "Latitude": "51.122028403688844", "Longitude": "-114.21642442364357", "NAME": "Monsignor E. L. Doyle Elementary", "POSTAL_CODE": "T3L1H6", "PROVINCIAL_CODE": "8555", "TYPE": "Separate School"}, "type": "Feature"}, {"geometry": {"coordinates": [-113.95619939061416, 51.107710228998044], "type": "Point"}, "properties": {"ADDRESS": "119 Castleridge Drive N.E.", "BOARD": "The Calgary Roman Catholic Separate School Division", "GRADES": "Elementary", "Latitude": "51.107710228998044", "Longitude": "-113.95619939061416", "NAME": "St. John Paul II", "POSTAL_CODE": "T3J1P6", "PROVINCIAL_CODE": "8549", "TYPE": "Separate School"}, "type": "Feature"}, {"geometry": {"coordinates": [-114.08736850697132, 51.16835239984041], "type": "Point"}, "properties": {"ADDRESS": "1308 Panatella Blvd NW", "BOARD": "The Calgary School Division", "GRADES": "Elementary", "Latitude": "51.16835239984041", "Longitude": "-114.08736850697132", "NAME": "Buffalo Rubbing Stone", "POSTAL_CODE": "T3K0X2", "PROVINCIAL_CODE": "2029", "TYPE": "Public School"}, "type": "Feature"}, {"geometry": {"coordinates": [-114.04196438357498, 51.06386878676648], "type": "Point"}, "properties": {"ADDRESS": "1210 Russet Road NE", "BOARD": "The Calgary School Division", "GRADES": "Elementary", "Latitude": "51.06386878676648", "Longitude": "-114.04196438357498", "NAME": "Children's Village", "POSTAL_CODE": "T2E5L5", "PROVINCIAL_CODE": "9014", "TYPE": "Public School"}, "type": "Feature"}, {"geometry": {"coordinates": [-114.1885009776293, 51.02420031640936], "type": "Point"}, "properties": {"ADDRESS": "7000 Elkton Drive S.W.", "BOARD": "The Palliser School Division", "GRADES": "Elementary/Junior High", "Latitude": "51.02420031640936", "Longitude": "-114.1885009776293", "NAME": "Menno Simons Christian", "POSTAL_CODE": "T3H4Y7", "PROVINCIAL_CODE": "9936", "TYPE": "Public School"}, "type": "Feature"}, {"geometry": {"coordinates": [-114.05851011862411, 50.97868236718686], "type": "Point"}, "properties": {"ADDRESS": "416 - 83 Avenue S.E.", "BOARD": "The Calgary Roman Catholic Separate School Division", "GRADES": "Elementary/Junior High", "Latitude": "50.97868236718686", "Longitude": "-114.05851011862411", "NAME": "St. Matthew", "POSTAL_CODE": "T2H1N3", "PROVINCIAL_CODE": "8716", "TYPE": "Separate School"}, "type": "Feature"}, {"geometry": {"coordinates": [-114.08937033343436, 50.986447768904256], "type": "Point"}, "properties": {"ADDRESS": "1312 - 75 Avenue S.W.", "BOARD": "The Calgary School Division", "GRADES": "Elementary", "Latitude": "50.986447768904256", "Longitude": "-114.08937033343436", "NAME": "Chinook Park", "POSTAL_CODE": "T2V0S6", "PROVINCIAL_CODE": "9306", "TYPE": "Public School"}, "type": "Feature"}, {"geometry": {"coordinates": [-114.04578944271555, 51.03318858802252], "type": "Point"}, "properties": {"ADDRESS": "2223 Spiller Road S.E.", "BOARD": "The Calgary School Division", "GRADES": "Elementary", "Latitude": "51.03318858802252", "Longitude": "-114.04578944271555", "NAME": "Ramsay", "POSTAL_CODE": "T2G4G9", "PROVINCIAL_CODE": "9130", "TYPE": "Public School"}, "type": "Feature"}, {"geometry": {"coordinates": [-114.07013116580133, 51.112797441016106], "type": "Point"}, "properties": {"ADDRESS": "#191, 1518 Centre Street N.E.", "BOARD": "The Chinese Academy Foundation", "GRADES": "Senior High", "Latitude": "51.112797441016106", "Longitude": "-114.07013116580133", "NAME": "The Chinese Academy", "POSTAL_CODE": "T2K1C2", "PROVINCIAL_CODE": "13", "TYPE": "Private School"}, "type": "Feature"}, {"geometry": {"coordinates": [-114.04092382155108, 50.94454097842627], "type": "Point"}, "properties": {"ADDRESS": "1015 - 120 Avenue S.E.", "BOARD": "The Calgary School Division", "GRADES": "Elementary", "Latitude": "50.94454097842627", "Longitude": "-114.04092382155108", "NAME": "Lake Bonavista", "POSTAL_CODE": "T2J2L1", "PROVINCIAL_CODE": "9334", "TYPE": "Public School"}, "type": "Feature"}, {"geometry": {"coordinates": [-114.00729277018596, 51.05895181318119], "type": "Point"}, "properties": {"ADDRESS": "2324 Maunsell Drive N.E.", "BOARD": "The Calgary School Division", "GRADES": "Elementary", "Latitude": "51.05895181318119", "Longitude": "-114.00729277018596", "NAME": "Mayland Heights", "POSTAL_CODE": "T2E6A2", "PROVINCIAL_CODE": "9223", "TYPE": "Public School"}, "type": "Feature"}, {"geometry": {"coordinates": [-113.96754312931172, 51.0741821887835], "type": "Point"}, "properties": {"ADDRESS": "4820 Rundlewood Drive N.E.", "BOARD": "The Calgary School Division", "GRADES": "Elementary", "Latitude": "51.0741821887835", "Longitude": "-113.96754312931172", "NAME": "Cecil Swanson", "POSTAL_CODE": "T1Y5V9", "PROVINCIAL_CODE": "9373", "TYPE": "Public School"}, "type": "Feature"}, {"geometry": {"coordinates": [-114.08265379500713, 51.03087449470886], "type": "Point"}, "properties": {"ADDRESS": "845 Hillcrest Avenue S.W.", "BOARD": "The Calgary School Division", "GRADES": "Elementary", "Latitude": "51.03087449470886", "Longitude": "-114.08265379500713", "NAME": "Earl Grey", "POSTAL_CODE": "T2T0Z1", "PROVINCIAL_CODE": "9118", "TYPE": "Public School"}, "type": "Feature"}, {"geometry": {"coordinates": [-114.20724035183872, 51.05712473725232], "type": "Point"}, "properties": {"ADDRESS": "7970 Wentworth Drive SW", "BOARD": "The Calgary Roman Catholic Separate School Division", "GRADES": "Elementary/Junior High", "Latitude": "51.05712473725232", "Longitude": "-114.20724035183872", "NAME": "St. Joan of Arc Elementary/Junior High", "POSTAL_CODE": "T3H0K2", "PROVINCIAL_CODE": "1338", "TYPE": "Separate School"}, "type": "Feature"}, {"geometry": {"coordinates": [-114.0814990521734, 51.06359709162604], "type": "Point"}, "properties": {"ADDRESS": "905 - 13 Avenue N.W.", "BOARD": "The Calgary School Division", "GRADES": "Elementary/Junior High", "Latitude": "51.06359709162604", "Longitude": "-114.0814990521734", "NAME": "Rosedale", "POSTAL_CODE": "T2M0G3", "PROVINCIAL_CODE": "9618", "TYPE": "Public School"}, "type": "Feature"}, {"geometry": {"coordinates": [-114.06314780701442, 51.0856296597672], "type": "Point"}, "properties": {"ADDRESS": "3717 Centre Street NW", "BOARD": "The Calgary School Division", "GRADES": "Elementary", "Latitude": "51.0856296597672", "Longitude": "-114.06314780701442", "NAME": "Buchanan", "POSTAL_CODE": "T2E2Y2", "PROVINCIAL_CODE": "9207", "TYPE": "Public School"}, "type": "Feature"}, {"geometry": {"coordinates": [-114.25111112290344, 51.128041877740785], "type": "Point"}, "properties": {"ADDRESS": "357 Tuscany Drive NW", "BOARD": "The Calgary School Division", "GRADES": "Elementary", "Latitude": "51.128041877740785", "Longitude": "-114.25111112290344", "NAME": "Eric Harvie", "POSTAL_CODE": "T3L3C9", "PROVINCIAL_CODE": "2031", "TYPE": "Public School"}, "type": "Feature"}, {"geometry": {"coordinates": [-114.04540628449004, 50.96724192597066], "type": "Point"}, "properties": {"ADDRESS": "9711 Academy Drive SE", "BOARD": "Foundations for the Future Charter Academy Charter School Society", "GRADES": "Elementary", "Latitude": "50.96724192597066", "Longitude": "-114.04540628449004", "NAME": "Southeast Elementary Campus", "POSTAL_CODE": "T2J1A9", "PROVINCIAL_CODE": "1348", "TYPE": "Charter"}, "type": "Feature"}, {"geometry": {"coordinates": [-114.10196112147355, 51.055458406375095], "type": "Point"}, "properties": {"ADDRESS": "402 - 18 Street N.W.", "BOARD": "The Calgary School Division", "GRADES": "Elementary", "Latitude": "51.055458406375095", "Longitude": "-114.10196112147355", "NAME": "Queen Elizabeth", "POSTAL_CODE": "T2N2G5", "PROVINCIAL_CODE": "9227", "TYPE": "Public School"}, "type": "Feature"}, {"geometry": {"coordinates": [-114.22502207141224, 51.04412145405013], "type": "Point"}, "properties": {"ADDRESS": "1515 - 93 Street SW", "BOARD": "Webber Academy Foundation", "GRADES": "Elementary/Junior High/Senior High", "Latitude": "51.04412145405013", "Longitude": "-114.22502207141224", "NAME": "Webber Academy", "POSTAL_CODE": "T3H4A8", "PROVINCIAL_CODE": "21", "TYPE": "Private School"}, "type": "Feature"}, {"geometry": {"coordinates": [-114.18923533988372, 51.03595702416803], "type": "Point"}, "properties": {"ADDRESS": "20 Springborough Blvd. SW", "BOARD": "The Calgary School Division", "GRADES": "Senior High", "Latitude": "51.03595702416803", "Longitude": "-114.18923533988372", "NAME": "Ernest Manning High", "POSTAL_CODE": "T3H0N7", "PROVINCIAL_CODE": "9826", "TYPE": "Public School"}, "type": "Feature"}, {"geometry": {"coordinates": [-113.97828885592264, 50.88277715461323], "type": "Point"}, "properties": {"ADDRESS": "585 Cranston Dr. SE", "BOARD": "The Calgary School Division", "GRADES": "Elementary/Junior High", "Latitude": "50.88277715461323", "Longitude": "-113.97828885592264", "NAME": "Dr. George Stanley", "POSTAL_CODE": "T3M0J4", "PROVINCIAL_CODE": "2084", "TYPE": "Public School"}, "type": "Feature"}, {"geometry": {"coordinates": [-114.13424545796528, 51.066007367021676], "type": "Point"}, "properties": {"ADDRESS": "", "BOARD": "", "GRADES": "", "Latitude": "51.066007367021676", "Longitude": "-114.13424545796528", "NAME": "University of Calgary - Foothills Campus", "POSTAL_CODE": "T2N4N1", "PROVINCIAL_CODE": "", "TYPE": "Post Secondary"}, "type": "Feature"}, {"geometry": {"coordinates": [-114.13479912704769, 51.103752632520376], "type": "Point"}, "properties": {"ADDRESS": "5615 Barrett Drive N.W.", "BOARD": "The Calgary School Division", "GRADES": "Elementary", "Latitude": "51.103752632520376", "Longitude": "-114.13479912704769", "NAME": "Dr. E. W. Coffin", "POSTAL_CODE": "T2L1W4", "PROVINCIAL_CODE": "9214", "TYPE": "Public School"}, "type": "Feature"}, {"geometry": {"coordinates": [-114.08913577380609, 50.97549517763054], "type": "Point"}, "properties": {"ADDRESS": "1123 - 87 Avenue S.W.", "BOARD": "The Calgary School Division", "GRADES": "Elementary", "Latitude": "50.97549517763054", "Longitude": "-114.08913577380609", "NAME": "Haysboro", "POSTAL_CODE": "T2V0W2", "PROVINCIAL_CODE": "9316", "TYPE": "Public School"}, "type": "Feature"}, {"geometry": {"coordinates": [-113.99380976995295, 51.05074503519509], "type": "Point"}, "properties": {"ADDRESS": "Omar Bin Al-Khattab Campus 225 28 Street SE", "BOARD": "The Palliser School Division", "GRADES": "Elementary/Junior High", "Latitude": "51.05074503519509", "Longitude": "-113.99380976995295", "NAME": "Calgary Islamic School, Omar Bin Al-Khattab Campus", "POSTAL_CODE": "T2A5K4", "PROVINCIAL_CODE": "1722", "TYPE": "Public School"}, "type": "Feature"}, {"geometry": {"coordinates": [-114.01385382321716, 50.993726042518], "type": "Point"}, "properties": {"ADDRESS": "1819 - 66 Avenue S.E.", "BOARD": "The Calgary School Division", "GRADES": "Elementary", "Latitude": "50.993726042518", "Longitude": "-114.01385382321716", "NAME": "Banting and Best", "POSTAL_CODE": "T2C2K5", "PROVINCIAL_CODE": "9369", "TYPE": "Public School"}, "type": "Feature"}, {"geometry": {"coordinates": [-114.02675675975492, 50.85930381494731], "type": "Point"}, "properties": {"ADDRESS": "729 Legacy Village Rd SE", "BOARD": "The Calgary Roman Catholic Separate School Division", "GRADES": "Senior High", "Latitude": "50.85930381494731", "Longitude": "-114.02675675975492", "NAME": "All Saints", "POSTAL_CODE": "T2X4K9", "PROVINCIAL_CODE": "2175", "TYPE": "Separate School"}, "type": "Feature"}, {"geometry": {"coordinates": [-114.06163955901133, 50.97309981986913], "type": "Point"}, "properties": {"ADDRESS": "9019 Fairmount Drive S.E.", "BOARD": "The Calgary School Division", "GRADES": "Senior High", "Latitude": "50.97309981986913", "Longitude": "-114.06163955901133", "NAME": "Lord Beaverbrook High", "POSTAL_CODE": "T2H0Z4", "PROVINCIAL_CODE": "9850", "TYPE": "Public School"}, "type": "Feature"}, {"geometry": {"coordinates": [-113.94543258045223, 51.09936414236255], "type": "Point"}, "properties": {"ADDRESS": "1331 Falconridge Drive N.E.", "BOARD": "The Calgary School Division", "GRADES": "Elementary", "Latitude": "51.09936414236255", "Longitude": "-113.94543258045223", "NAME": "Falconridge", "POSTAL_CODE": "T3J1T4", "PROVINCIAL_CODE": "9375", "TYPE": "Public School"}, "type": "Feature"}, {"geometry": {"coordinates": [-114.04770961004157, 51.05285065130275], "type": "Point"}, "properties": {"ADDRESS": "107 - 6A Street N.E.", "BOARD": "The Calgary School Division", "GRADES": "Elementary/Junior High", "Latitude": "51.05285065130275", "Longitude": "-114.04770961004157", "NAME": "Langevin", "POSTAL_CODE": "T2E0B7", "PROVINCIAL_CODE": "9609", "TYPE": "Public School"}, "type": "Feature"}, {"geometry": {"coordinates": [-113.9826487804958, 50.93526299359368], "type": "Point"}, "properties": {"ADDRESS": "400 Douglas Park Blvd. S.E.", "BOARD": "The Calgary School Division", "GRADES": "Elementary", "Latitude": "50.93526299359368", "Longitude": "-113.9826487804958", "NAME": "Douglasdale", "POSTAL_CODE": "T2Z4A3", "PROVINCIAL_CODE": "596", "TYPE": "Public School"}, "type": "Feature"}, {"geometry": {"coordinates": [-114.10088343789056, 51.02726986042331], "type": "Point"}, "properties": {"ADDRESS": "cSPACE Projects 1721-29 Avenue SW", "BOARD": "Maria Montessori Education Centre of Calgary, Ltd.", "GRADES": "Unknown", "Latitude": "51.02726986042331", "Longitude": "-114.10088343789056", "NAME": "Maria Montessori School - cSPACE King Edward Location", "POSTAL_CODE": "T2T6T7", "PROVINCIAL_CODE": "2167", "TYPE": "Private School"}, "type": "Feature"}, {"geometry": {"coordinates": [-114.10732595888565, 51.13967813016459], "type": "Point"}, "properties": {"ADDRESS": "375 Sandarac Drive N.W.", "BOARD": "The Calgary School Division", "GRADES": "Elementary", "Latitude": "51.13967813016459", "Longitude": "-114.10732595888565", "NAME": "Simons Valley", "POSTAL_CODE": "T3K4B2", "PROVINCIAL_CODE": "9383", "TYPE": "Public School"}, "type": "Feature"}, {"geometry": {"coordinates": [-114.14022892058524, 51.09789338393484], "type": "Point"}, "properties": {"ADDRESS": "5030 Northland Drive N.W.", "BOARD": "The Calgary Roman Catholic Separate School Division", "GRADES": "Junior High", "Latitude": "51.09789338393484", "Longitude": "-114.14022892058524", "NAME": "St. Jean Brebeuf", "POSTAL_CODE": "T2L2J6", "PROVINCIAL_CODE": "8703", "TYPE": "Separate School"}, "type": "Feature"}, {"geometry": {"coordinates": [-114.05629287207928, 50.97743769717626], "type": "Point"}, "properties": {"ADDRESS": "2223 Spiller Rd SE", "BOARD": "Janus Academy Society", "GRADES": "Junior High/Senior High", "Latitude": "50.97743769717626", "Longitude": "-114.05629287207928", "NAME": "Janus Academy (Holy Cross Site)", "POSTAL_CODE": "T2H1S1", "PROVINCIAL_CODE": "1323", "TYPE": "Private School"}, "type": "Feature"}, {"geometry": {"coordinates": [-114.11066198234371, 50.90238360612156], "type": "Point"}, "properties": {"ADDRESS": "207 Bridleridge Way S.W.", "BOARD": "The Calgary School Division", "GRADES": "Elementary", "Latitude": "50.90238360612156", "Longitude": "-114.11066198234371", "NAME": "Bridlewood", "POSTAL_CODE": "T2Y0L4", "PROVINCIAL_CODE": "1498", "TYPE": "Public School"}, "type": "Feature"}, {"geometry": {"coordinates": [-114.07782355013931, 50.97327737890793], "type": "Point"}, "properties": {"ADDRESS": "140 Haddon Road S.W.", "BOARD": "Congregation House of Jacob-Mikveh Israel", "GRADES": "Elementary/Junior High", "Latitude": "50.97327737890793", "Longitude": "-114.07782355013931", "NAME": "Akiva Academy", "POSTAL_CODE": "T2V2Y3", "PROVINCIAL_CODE": "9914", "TYPE": "Private School"}, "type": "Feature"}, {"geometry": {"coordinates": [-113.98724182663172, 50.88678713843287], "type": "Point"}, "properties": {"ADDRESS": "205 Cranston Drive SE", "BOARD": "The Calgary School Division", "GRADES": "Elementary", "Latitude": "50.88678713843287", "Longitude": "-113.98724182663172", "NAME": "Cranston", "POSTAL_CODE": "T3M1E8", "PROVINCIAL_CODE": "1499", "TYPE": "Public School"}, "type": "Feature"}, {"geometry": {"coordinates": [-114.14539828714524, 51.015379944068926], "type": "Point"}, "properties": {"ADDRESS": "50 Grafton Drive S.W.", "BOARD": "The Calgary School Division", "GRADES": "Elementary/Junior High", "Latitude": "51.015379944068926", "Longitude": "-114.14539828714524", "NAME": "Glamorgan", "POSTAL_CODE": "T3E4W3", "PROVINCIAL_CODE": "9121", "TYPE": "Public School"}, "type": "Feature"}, {"geometry": {"coordinates": [-114.00303449514637, 51.10133931422609], "type": "Point"}, "properties": {"ADDRESS": "#137 5305 McCall Way NE", "BOARD": "Aurora Learning Foundation (Calgary)", "GRADES": "Elementary/Junior High/Senior High", "Latitude": "51.10133931422609", "Longitude": "-114.00303449514637", "NAME": "Aurora Learning Calgary", "POSTAL_CODE": "T2E7N7", "PROVINCIAL_CODE": "1397", "TYPE": "Private School"}, "type": "Feature"}, {"geometry": {"coordinates": [-114.16047374152122, 51.03113745402188], "type": "Point"}, "properties": {"ADDRESS": "5340 - 26 Avenue S.W.", "BOARD": "The Calgary Roman Catholic Separate School Division", "GRADES": "Junior High", "Latitude": "51.03113745402188", "Longitude": "-114.16047374152122", "NAME": "St. Gregory", "POSTAL_CODE": "T3E0R6", "PROVINCIAL_CODE": "8710", "TYPE": "Separate School"}, "type": "Feature"}, {"geometry": {"coordinates": [-114.01707356956825, 51.073887238956885], "type": "Point"}, "properties": {"ADDRESS": "2411 Vermillion Street N.E.", "BOARD": "The Calgary School Division", "GRADES": "Elementary", "Latitude": "51.073887238956885", "Longitude": "-114.01707356956825", "NAME": "Vista Heights", "POSTAL_CODE": "T2E6J3", "PROVINCIAL_CODE": "9239", "TYPE": "Public School"}, "type": "Feature"}, {"geometry": {"coordinates": [-113.93775508268502, 51.12125306210077], "type": "Point"}, "properties": {"ADDRESS": "170 Taravista Drive N.E,", "BOARD": "The Calgary School Division", "GRADES": "Elementary", "Latitude": "51.12125306210077", "Longitude": "-113.93775508268502", "NAME": "Taradale", "POSTAL_CODE": "", "PROVINCIAL_CODE": "1450", "TYPE": "Public School"}, "type": "Feature"}, {"geometry": {"coordinates": [-114.10169431546197, 50.956673559277114], "type": "Point"}, "properties": {"ADDRESS": "1747 - 107 Avenue S.W.", "BOARD": "The Calgary School Division", "GRADES": "Elementary", "Latitude": "50.956673559277114", "Longitude": "-114.10169431546197", "NAME": "Braeside", "POSTAL_CODE": "T2W0C3", "PROVINCIAL_CODE": "9305", "TYPE": "Public School"}, "type": "Feature"}, {"geometry": {"coordinates": [-114.14392908351746, 51.07476523311914], "type": "Point"}, "properties": {"ADDRESS": "2050 - 21 Street N.E.", "BOARD": "Renfrew Educational Services Society", "GRADES": "Unknown", "Latitude": "51.07476523311914", "Longitude": "-114.14392908351746", "NAME": "Renfrew Educational Services - Child Development Centre", "POSTAL_CODE": "", "PROVINCIAL_CODE": "280", "TYPE": "Private School"}, "type": "Feature"}, {"geometry": {"coordinates": [-114.19278889034004, 51.0875590584316], "type": "Point"}, "properties": {"ADDRESS": "3940 - 73 Street N.W.", "BOARD": "The Calgary School Division", "GRADES": "Elementary", "Latitude": "51.0875590584316", "Longitude": "-114.19278889034004", "NAME": "Bowcroft", "POSTAL_CODE": "T3B2L9", "PROVINCIAL_CODE": "9111", "TYPE": "Public School"}, "type": "Feature"}, {"geometry": {"coordinates": [-114.08077713043531, 50.99111368914504], "type": "Point"}, "properties": {"ADDRESS": "7112 - 7 Street S.W.", "BOARD": "The Calgary Roman Catholic Separate School Division", "GRADES": "Elementary/Junior High", "Latitude": "50.99111368914504", "Longitude": "-114.08077713043531", "NAME": "St. Augustine Elementary Junior High", "POSTAL_CODE": "T2V1E9", "PROVINCIAL_CODE": "8708", "TYPE": "Separate School"}, "type": "Feature"}, {"geometry": {"coordinates": [-114.10240754784752, 51.08450658312066], "type": "Point"}, "properties": {"ADDRESS": "877 Northmount Drive N.W.", "BOARD": "The Calgary Roman Catholic Separate School Division", "GRADES": "Senior High", "Latitude": "51.08450658312066", "Longitude": "-114.10240754784752", "NAME": "St. Francis High", "POSTAL_CODE": "", "PROVINCIAL_CODE": "8902", "TYPE": "Separate School"}, "type": "Feature"}, {"geometry": {"coordinates": [-114.15342310390386, 51.0440372581387], "type": "Point"}, "properties": {"ADDRESS": "939 - 45 Street S.W.", "BOARD": "The Calgary School Division", "GRADES": "Junior High", "Latitude": "51.0440372581387", "Longitude": "-114.15342310390386", "NAME": "Vincent Massey", "POSTAL_CODE": "T3C2B9", "PROVINCIAL_CODE": "9628", "TYPE": "Public School"}, "type": "Feature"}, {"geometry": {"coordinates": [-114.11553670016748, 51.08821109631006], "type": "Point"}, "properties": {"ADDRESS": "2155 Chilcotin Road N.W.", "BOARD": "The Calgary School Division", "GRADES": "Elementary/Junior High", "Latitude": "51.08821109631006", "Longitude": "-114.11553670016748", "NAME": "Senator Patrick Burns", "POSTAL_CODE": "T2L0X2", "PROVINCIAL_CODE": "9640", "TYPE": "Public School"}, "type": "Feature"}, {"geometry": {"coordinates": [-114.20807048345276, 51.165579390733726], "type": "Point"}, "properties": {"ADDRESS": "Calgary Young Offender Centre 12626 - 85 Street N.W.", "BOARD": "The Calgary School Division", "GRADES": "Junior High/Senior High", "Latitude": "51.165579390733726", "Longitude": "-114.20807048345276", "NAME": "West View", "POSTAL_CODE": "T3R1J3", "PROVINCIAL_CODE": "9687", "TYPE": "Public School"}, "type": "Feature"}, {"geometry": {"coordinates": [-114.14997269495294, 51.0853094470369], "type": "Point"}, "properties": {"ADDRESS": "3720 - 42 Street NW", "BOARD": "The Southern Francophone Education Region", "GRADES": "Elementary", "Latitude": "51.0853094470369", "Longitude": "-114.14997269495294", "NAME": "Ecole Terre des Jeunes", "POSTAL_CODE": "T3A0C6", "PROVINCIAL_CODE": "1364", "TYPE": "Francophone"}, "type": "Feature"}, {"geometry": {"coordinates": [-114.0680318288637, 51.101596937173056], "type": "Point"}, "properties": {"ADDRESS": "5607 Thornton Road N.W.", "BOARD": "The Calgary Roman Catholic Separate School Division", "GRADES": "Elementary", "Latitude": "51.101596937173056", "Longitude": "-114.0680318288637", "NAME": "Corpus Christi", "POSTAL_CODE": "T2K3C1", "PROVINCIAL_CODE": "8501", "TYPE": "Separate School"}, "type": "Feature"}, {"geometry": {"coordinates": [-114.19278889034004, 51.0875590584316], "type": "Point"}, "properties": {"ADDRESS": "PO Box 84114   Market Mall RPO", "BOARD": "Calgary German Language School Society", "GRADES": "Junior High/Senior High", "Latitude": "51.0875590584316", "Longitude": "-114.19278889034004", "NAME": "Calgary German Language School Society", "POSTAL_CODE": "T3B2L9", "PROVINCIAL_CODE": "9925", "TYPE": "Private School"}, "type": "Feature"}, {"geometry": {"coordinates": [-113.94670276869337, 51.07198995436679], "type": "Point"}, "properties": {"ADDRESS": "6006 Rundlehorn Drive N.E.", "BOARD": "The Calgary Roman Catholic Separate School Division", "GRADES": "Elementary", "Latitude": "51.07198995436679", "Longitude": "-113.94670276869337", "NAME": "St. Patrick", "POSTAL_CODE": "T1Y2X1", "PROVINCIAL_CODE": "8507", "TYPE": "Separate School"}, "type": "Feature"}, {"geometry": {"coordinates": [-114.1398144283913, 51.03967370693621], "type": "Point"}, "properties": {"ADDRESS": "Building B4, 2452 Battleford A", "BOARD": "Horizon Academy Institute", "GRADES": "Senior High", "Latitude": "51.03967370693621", "Longitude": "-114.1398144283913", "NAME": "Horizon Heritage Arabic", "POSTAL_CODE": "T3C3P1", "PROVINCIAL_CODE": "1913", "TYPE": "Private School"}, "type": "Feature"}, {"geometry": {"coordinates": [-114.1579317405693, 51.07450187846564], "type": "Point"}, "properties": {"ADDRESS": "2103 - 46 Street N.W.", "BOARD": "The Calgary School Division", "GRADES": "Elementary", "Latitude": "51.07450187846564", "Longitude": "-114.1579317405693", "NAME": "Terrace Road", "POSTAL_CODE": "T3B1B3", "PROVINCIAL_CODE": "9138", "TYPE": "Public School"}, "type": "Feature"}, {"geometry": {"coordinates": [-113.9737217405466, 51.07118231533872], "type": "Point"}, "properties": {"ADDRESS": "4120 Rundlehorn Drive N.E.", "BOARD": "The Calgary School Division", "GRADES": "Elementary", "Latitude": "51.07118231533872", "Longitude": "-113.9737217405466", "NAME": "Rundle", "POSTAL_CODE": "T1Y4W9", "PROVINCIAL_CODE": "9358", "TYPE": "Public School"}, "type": "Feature"}, {"geometry": {"coordinates": [-114.05465136499893, 50.96940358851814], "type": "Point"}, "properties": {"ADDRESS": "9320 Arbour Crescent S.E.", "BOARD": "The Calgary School Division", "GRADES": "Elementary/Junior High", "Latitude": "50.96940358851814", "Longitude": "-114.05465136499893", "NAME": "David Thompson", "POSTAL_CODE": "T2J1K4", "PROVINCIAL_CODE": "9641", "TYPE": "Public School"}, "type": "Feature"}, {"geometry": {"coordinates": [-114.08313812292558, 50.88618302412995], "type": "Point"}, "properties": {"ADDRESS": "31 Silverado Terrace SW", "BOARD": "The Calgary Roman Catholic Separate School Division", "GRADES": "Elementary/Junior High", "Latitude": "50.88618302412995", "Longitude": "-114.08313812292558", "NAME": "Holy Child", "POSTAL_CODE": "T2X0K4", "PROVINCIAL_CODE": "2160", "TYPE": "Separate School"}, "type": "Feature"}, {"geometry": {"coordinates": [-114.05968876099476, 51.14695688983867], "type": "Point"}, "properties": {"ADDRESS": "509 Harvest Hills Drive N.E.", "BOARD": "The Calgary Roman Catholic Separate School Division", "GRADES": "Elementary/Junior High", "Latitude": "51.14695688983867", "Longitude": "-114.05968876099476", "NAME": "Ascension of Our Lord", "POSTAL_CODE": "T3K4G9", "PROVINCIAL_CODE": "333", "TYPE": "Separate School"}, "type": "Feature"}, {"geometry": {"coordinates": [-114.05789503920653, 51.11164371544339], "type": "Point"}, "properties": {"ADDRESS": "6625 - 4 Street N.E.", "BOARD": "The Calgary School Division", "GRADES": "Elementary", "Latitude": "51.11164371544339", "Longitude": "-114.05789503920653", "NAME": "Catherine Nichols Gunn", "POSTAL_CODE": "T2K5C7", "PROVINCIAL_CODE": "9232", "TYPE": "Public School"}, "type": "Feature"}, {"geometry": {"coordinates": [-113.94522928922134, 51.070324796585155], "type": "Point"}, "properties": {"ADDRESS": "1927 - 61 Street N.E.", "BOARD": "The Calgary School Division", "GRADES": "Elementary", "Latitude": "51.070324796585155", "Longitude": "-113.94522928922134", "NAME": "Pineridge", "POSTAL_CODE": "T1Y4W6", "PROVINCIAL_CODE": "9360", "TYPE": "Public School"}, "type": "Feature"}, {"geometry": {"coordinates": [-114.08592144910396, 51.155814013156686], "type": "Point"}, "properties": {"ADDRESS": "1057 Panorama Hills Dr N.E", "BOARD": "The Calgary School Division", "GRADES": "Elementary", "Latitude": "51.155814013156686", "Longitude": "-114.08592144910396", "NAME": "Panorama Hills", "POSTAL_CODE": "T3K0S4", "PROVINCIAL_CODE": "1452", "TYPE": "Public School"}, "type": "Feature"}, {"geometry": {"coordinates": [-114.19428748015133, 51.11369077417258], "type": "Point"}, "properties": {"ADDRESS": "511 Silvergrove Drive N.W.", "BOARD": "The Calgary School Division", "GRADES": "Elementary", "Latitude": "51.11369077417258", "Longitude": "-114.19428748015133", "NAME": "W.O. Mitchell", "POSTAL_CODE": "T3B4R9", "PROVINCIAL_CODE": "9257", "TYPE": "Public School"}, "type": "Feature"}, {"geometry": {"coordinates": [-114.15157745417609, 51.044784910360725], "type": "Point"}, "properties": {"ADDRESS": "4511 - 8 Avenue S.W.", "BOARD": "The Calgary Roman Catholic Separate School Division", "GRADES": "Elementary/Junior High", "Latitude": "51.044784910360725", "Longitude": "-114.15157745417609", "NAME": "St. Michael", "POSTAL_CODE": "T3C0G9", "PROVINCIAL_CODE": "8717", "TYPE": "Separate School"}, "type": "Feature"}, {"geometry": {"coordinates": [-113.9379102324334, 51.11632174668843], "type": "Point"}, "properties": {"ADDRESS": "6320 Taralea Park NE", "BOARD": "The Calgary Roman Catholic Separate School Division", "GRADES": "Elementary", "Latitude": "51.11632174668843", "Longitude": "-113.9379102324334", "NAME": "Our Lady of Fatima", "POSTAL_CODE": "T3J5C4", "PROVINCIAL_CODE": "1226", "TYPE": "Separate School"}, "type": "Feature"}, {"geometry": {"coordinates": [-114.08481701493501, 50.94250672212092], "type": "Point"}, "properties": {"ADDRESS": "12424 Elbow Drive S.W.", "BOARD": "The Calgary School Division", "GRADES": "Elementary/Junior High", "Latitude": "50.94250672212092", "Longitude": "-114.08481701493501", "NAME": "Robert Warren", "POSTAL_CODE": "T2W1H2", "PROVINCIAL_CODE": "9655", "TYPE": "Public School"}, "type": "Feature"}, {"geometry": {"coordinates": [-114.0926064832227, 50.99349472299216], "type": "Point"}, "properties": {"ADDRESS": "6700 Kootenay Street S.W.", "BOARD": "The Calgary Jewish Academy", "GRADES": "Elementary/Junior High", "Latitude": "50.99349472299216", "Longitude": "-114.0926064832227", "NAME": "Calgary Jewish Academy", "POSTAL_CODE": "T2V1P7", "PROVINCIAL_CODE": "9911", "TYPE": "Private School"}, "type": "Feature"}, {"geometry": {"coordinates": [-114.11043639110667, 51.151101831682396], "type": "Point"}, "properties": {"ADDRESS": "10845 Hidden Valley Drive", "BOARD": "The Calgary Roman Catholic Separate School Division", "GRADES": "Elementary/Junior High", "Latitude": "51.151101831682396", "Longitude": "-114.11043639110667", "NAME": "St. Elizabeth Seton", "POSTAL_CODE": "T3A6K3", "PROVINCIAL_CODE": "588", "TYPE": "Separate School"}, "type": "Feature"}, {"geometry": {"coordinates": [-114.10903047499593, 51.07124691272822], "type": "Point"}, "properties": {"ADDRESS": "2103 - 20 Street N.W.", "BOARD": "The Calgary School Division", "GRADES": "Elementary/Junior High", "Latitude": "51.07124691272822", "Longitude": "-114.10903047499593", "NAME": "Branton", "POSTAL_CODE": "T2M3W1", "PROVINCIAL_CODE": "9621", "TYPE": "Public School"}, "type": "Feature"}, {"geometry": {"coordinates": [-113.9239578308931, 50.9015566152245], "type": "Point"}, "properties": {"ADDRESS": "228 Mahogany Blvd. SE", "BOARD": "The Calgary Roman Catholic Separate School Division", "GRADES": "Elementary", "Latitude": "50.9015566152245", "Longitude": "-113.9239578308931", "NAME": "Divine Mercy", "POSTAL_CODE": "T3M1M5", "PROVINCIAL_CODE": "2189", "TYPE": "Separate School"}, "type": "Feature"}, {"geometry": {"coordinates": [-114.13655045217867, 51.10031940846632], "type": "Point"}, "properties": {"ADDRESS": "5215 - 33 Street N.W.", "BOARD": "The Calgary School Division", "GRADES": "Elementary/Junior High", "Latitude": "51.10031940846632", "Longitude": "-114.13655045217867", "NAME": "Simon Fraser", "POSTAL_CODE": "T2L1V3", "PROVINCIAL_CODE": "9646", "TYPE": "Public School"}, "type": "Feature"}, {"geometry": {"coordinates": [-114.12268683334047, 51.09082672297515], "type": "Point"}, "properties": {"ADDRESS": "1232 Northmount Dr., N.W.", "BOARD": "The Calgary Roman Catholic Separate School Division", "GRADES": "Elementary", "Latitude": "51.09082672297515", "Longitude": "-114.12268683334047", "NAME": "St. Luke Bilingual Elementary", "POSTAL_CODE": "T2L0E1", "PROVINCIAL_CODE": "8521", "TYPE": "Separate School"}, "type": "Feature"}, {"geometry": {"coordinates": [-114.00945454338842, 50.921555427743264], "type": "Point"}, "properties": {"ADDRESS": "2127 - 146 Avenue S.E.", "BOARD": "The Calgary School Division", "GRADES": "Elementary", "Latitude": "50.921555427743264", "Longitude": "-114.00945454338842", "NAME": "Deer Run", "POSTAL_CODE": "T2J6P8", "PROVINCIAL_CODE": "9265", "TYPE": "Public School"}, "type": "Feature"}, {"geometry": {"coordinates": [-113.96899426430878, 51.091926538839864], "type": "Point"}, "properties": {"ADDRESS": "4225 - 44 Avenue N.E.", "BOARD": "The Calgary Roman Catholic Separate School Division", "GRADES": "Elementary", "Latitude": "51.091926538839864", "Longitude": "-113.96899426430878", "NAME": "St. Wilfrid Elementary", "POSTAL_CODE": "T1Y4Y1", "PROVINCIAL_CODE": "8541", "TYPE": "Separate School"}, "type": "Feature"}, {"geometry": {"coordinates": [-114.04718120951901, 50.931737061001265], "type": "Point"}, "properties": {"ADDRESS": "1710 Acadia Drive S.E.", "BOARD": "The Calgary Roman Catholic Separate School Division", "GRADES": "Junior High", "Latitude": "50.931737061001265", "Longitude": "-114.04718120951901", "NAME": "St. Bonaventure", "POSTAL_CODE": "T2J3X8", "PROVINCIAL_CODE": "8721", "TYPE": "Separate School"}, "type": "Feature"}, {"geometry": {"coordinates": [-113.97052825760973, 51.07689761729061], "type": "Point"}, "properties": {"ADDRESS": "111 Rundlehill Drive N.E.", "BOARD": "The Calgary Roman Catholic Separate School Division", "GRADES": "Elementary", "Latitude": "51.07689761729061", "Longitude": "-113.97052825760973", "NAME": "St. Rupert", "POSTAL_CODE": "T1Y2W9", "PROVINCIAL_CODE": "8548", "TYPE": "Separate School"}, "type": "Feature"}, {"geometry": {"coordinates": [-114.00792305868566, 51.05967721842337], "type": "Point"}, "properties": {"ADDRESS": "2215 - 8 Avenue N.E.", "BOARD": "The Calgary School Division", "GRADES": "Elementary/Junior High", "Latitude": "51.05967721842337", "Longitude": "-114.00792305868566", "NAME": "Sir John Franklin", "POSTAL_CODE": "T2E0T7", "PROVINCIAL_CODE": "9649", "TYPE": "Public School"}, "type": "Feature"}, {"geometry": {"coordinates": [-114.2242479372351, 51.03943008461902], "type": "Point"}, "properties": {"ADDRESS": "1677 93 rd Street S.W.", "BOARD": "Calgary Academy Society", "GRADES": "Elementary/Junior High/Senior High", "Latitude": "51.03943008461902", "Longitude": "-114.2242479372351", "NAME": "Calgary Academy", "POSTAL_CODE": "T3H0R3", "PROVINCIAL_CODE": "9908", "TYPE": "Private School"}, "type": "Feature"}, {"geometry": {"coordinates": [-114.08488512449149, 50.89740582845411], "type": "Point"}, "properties": {"ADDRESS": "150 Somerset Manor S.W.", "BOARD": "The Calgary School Division", "GRADES": "Elementary", "Latitude": "50.89740582845411", "Longitude": "-114.08488512449149", "NAME": "Somerset", "POSTAL_CODE": "T2Y4S2", "PROVINCIAL_CODE": "1099", "TYPE": "Public School"}, "type": "Feature"}, {"geometry": {"coordinates": [-114.08826216557271, 50.99074473227965], "type": "Point"}, "properties": {"ADDRESS": "1112 70 Avenue S.W.", "BOARD": "The Canadian Montessori School Ltd.", "GRADES": "Elementary", "Latitude": "50.99074473227965", "Longitude": "-114.08826216557271", "NAME": "Canadian Montessori", "POSTAL_CODE": "T2V0P6", "PROVINCIAL_CODE": "1981", "TYPE": "Private School"}, "type": "Feature"}, {"geometry": {"coordinates": [-113.95370783992476, 50.91947717431829], "type": "Point"}, "properties": {"ADDRESS": "30 New Brighton Drive SE", "BOARD": "The Calgary School Division", "GRADES": "Elementary", "Latitude": "50.91947717431829", "Longitude": "-113.95370783992476", "NAME": "New Brighton", "POSTAL_CODE": "T2Z4B2", "PROVINCIAL_CODE": "2072", "TYPE": "Public School"}, "type": "Feature"}, {"geometry": {"coordinates": [-113.96549964706662, 51.05608356912292], "type": "Point"}, "properties": {"ADDRESS": "4711 Maryvale Drive N.E.", "BOARD": "The Calgary School Division", "GRADES": "Elementary", "Latitude": "51.05608356912292", "Longitude": "-113.96549964706662", "NAME": "Marlborough", "POSTAL_CODE": "T2A3A1", "PROVINCIAL_CODE": "9322", "TYPE": "Public School"}, "type": "Feature"}, {"geometry": {"coordinates": [-114.10169198321243, 51.061105337955944], "type": "Point"}, "properties": {"ADDRESS": "1005 - 17 Street N.W.", "BOARD": "The Calgary School Division", "GRADES": "Unknown", "Latitude": "51.061105337955944", "Longitude": "-114.10169198321243", "NAME": "AADAC Youth Services", "POSTAL_CODE": "T2N2E5", "PROVINCIAL_CODE": "9573", "TYPE": "Public School"}, "type": "Feature"}, {"geometry": {"coordinates": [-113.99064795938101, 51.02632922422375], "type": "Point"}, "properties": {"ADDRESS": "3113 - 30 Avenue S.E.", "BOARD": "The Calgary School Division", "GRADES": "Elementary", "Latitude": "51.02632922422375", "Longitude": "-113.99064795938101", "NAME": "West Dover", "POSTAL_CODE": "T2B0G9", "PROVINCIAL_CODE": "9357", "TYPE": "Public School"}, "type": "Feature"}, {"geometry": {"coordinates": [-113.93022001134355, 51.05195232838787], "type": "Point"}, "properties": {"ADDRESS": "1320 Abbeydale Drive SE", "BOARD": "Eastside City Church and Missionary Society", "GRADES": "Elementary/Junior High/Senior High", "Latitude": "51.05195232838787", "Longitude": "-113.93022001134355", "NAME": "Eastside Christian Academy", "POSTAL_CODE": "T2A7L8", "PROVINCIAL_CODE": "478", "TYPE": "Private School"}, "type": "Feature"}, {"geometry": {"coordinates": [-114.20283649964796, 51.15183701640225], "type": "Point"}, "properties": {"ADDRESS": "14 Royal Vista Link NW", "BOARD": "The Renert School Foundation", "GRADES": "Elementary/Junior High/Senior High", "Latitude": "51.15183701640225", "Longitude": "-114.20283649964796", "NAME": "Renert", "POSTAL_CODE": "T3R0K4", "PROVINCIAL_CODE": "1747", "TYPE": "Private School"}, "type": "Feature"}, {"geometry": {"coordinates": [-114.09763740278484, 51.08213531925243], "type": "Point"}, "properties": {"ADDRESS": "3320 Carol Drive N.W.", "BOARD": "The Calgary Roman Catholic Separate School Division", "GRADES": "Elementary/Junior High", "Latitude": "51.08213531925243", "Longitude": "-114.09763740278484", "NAME": "St. Margaret", "POSTAL_CODE": "T2L0K7", "PROVINCIAL_CODE": "8714", "TYPE": "Separate School"}, "type": "Feature"}, {"geometry": {"coordinates": [-113.96577738421506, 51.02269972468891], "type": "Point"}, "properties": {"ADDRESS": "25 Erin Park Drive SE", "BOARD": "The Calgary School Division", "GRADES": "Elementary", "Latitude": "51.02269972468891", "Longitude": "-113.96577738421506", "NAME": "Erin Woods", "POSTAL_CODE": "T2B2Z9", "PROVINCIAL_CODE": "9269", "TYPE": "Public School"}, "type": "Feature"}, {"geometry": {"coordinates": [-114.15919984034448, 51.0444881458484], "type": "Point"}, "properties": {"ADDRESS": "150 Westminster Drive S.W.", "BOARD": "The Calgary School Division", "GRADES": "Elementary", "Latitude": "51.0444881458484", "Longitude": "-114.15919984034448", "NAME": "Westgate", "POSTAL_CODE": "T3C2T3", "PROVINCIAL_CODE": "9140", "TYPE": "Public School"}, "type": "Feature"}, {"geometry": {"coordinates": [-113.99223298724004, 51.046161363175905], "type": "Point"}, "properties": {"ADDRESS": "2805 Radcliffe Drive S.E.", "BOARD": "The Calgary School Division", "GRADES": "Elementary", "Latitude": "51.046161363175905", "Longitude": "-113.99223298724004", "NAME": "Radisson Park", "POSTAL_CODE": "T2A0C8", "PROVINCIAL_CODE": "1334", "TYPE": "Public School"}, "type": "Feature"}, {"geometry": {"coordinates": [-114.14850698064649, 51.143445733495945], "type": "Point"}, "properties": {"ADDRESS": "10330 Hamptons Boulevard N.W.", "BOARD": "The Calgary School Division", "GRADES": "Elementary", "Latitude": "51.143445733495945", "Longitude": "-114.14850698064649", "NAME": "The Hamptons", "POSTAL_CODE": "T3A6G2", "PROVINCIAL_CODE": "387", "TYPE": "Public School"}, "type": "Feature"}, {"geometry": {"coordinates": [-113.9784098464004, 51.055338754642], "type": "Point"}, "properties": {"ADDRESS": "#92 116 3800 Memorial Dr NE", "BOARD": "The Calgary School Division", "GRADES": "Senior High", "Latitude": "51.055338754642", "Longitude": "-113.9784098464004", "NAME": "Discovering Choices 2", "POSTAL_CODE": "T2A5H5", "PROVINCIAL_CODE": "1161", "TYPE": "Public School"}, "type": "Feature"}, {"geometry": {"coordinates": [-113.96877372841975, 51.05992939967567], "type": "Point"}, "properties": {"ADDRESS": "4424 Marlborough Drive N.E.", "BOARD": "The Calgary School Division", "GRADES": "Elementary/Junior High", "Latitude": "51.05992939967567", "Longitude": "-113.96877372841975", "NAME": "Bob Edwards", "POSTAL_CODE": "T2A2Z5", "PROVINCIAL_CODE": "9623", "TYPE": "Public School"}, "type": "Feature"}, {"geometry": {"coordinates": [-113.95751177577944, 51.11376670342173], "type": "Point"}, "properties": {"ADDRESS": "199 Martindale Blvd NE", "BOARD": "The Southern Francophone Education Region", "GRADES": "Elementary", "Latitude": "51.11376670342173", "Longitude": "-113.95751177577944", "NAME": "\u00c3\u2030cole La Mosa\u00c3\u00afque", "POSTAL_CODE": "T3J3G4", "PROVINCIAL_CODE": "1365", "TYPE": "Francophone"}, "type": "Feature"}, {"geometry": {"coordinates": [-114.06542562664656, 51.06858162243973], "type": "Point"}, "properties": {"ADDRESS": "2336 53 Ave SW, Calgary, T3E 1", "BOARD": "The Calgary School Division", "GRADES": "Senior High", "Latitude": "51.06858162243973", "Longitude": "-114.06542562664656", "NAME": "Chinook Learning Services", "POSTAL_CODE": "T2M0T2", "PROVINCIAL_CODE": "9817", "TYPE": "Public School"}, "type": "Feature"}, {"geometry": {"coordinates": [-114.13441071716392, 51.064668759076035], "type": "Point"}, "properties": {"ADDRESS": "805 - 37 Street NW", "BOARD": "The Calgary School Division", "GRADES": "Elementary/Junior High/Senior High", "Latitude": "51.064668759076035", "Longitude": "-114.13441071716392", "NAME": "Young Adult Program", "POSTAL_CODE": "T2N2T9", "PROVINCIAL_CODE": "9512", "TYPE": "Public School"}, "type": "Feature"}, {"geometry": {"coordinates": [-114.1799393555714, 51.11482355930169], "type": "Point"}, "properties": {"ADDRESS": "64 12 street NE", "BOARD": "Muslim Association of Canada", "GRADES": "Elementary", "Latitude": "51.11482355930169", "Longitude": "-114.1799393555714", "NAME": "MAC Islamic School - Calgary Chapter", "POSTAL_CODE": "T3G1B5", "PROVINCIAL_CODE": "2178", "TYPE": "Private School"}, "type": "Feature"}, {"geometry": {"coordinates": [-113.97767814974473, 51.02983255202813], "type": "Point"}, "properties": {"ADDRESS": "3909 - 26 Avenue S.E.", "BOARD": "The Calgary School Division", "GRADES": "Elementary/Junior High", "Latitude": "51.02983255202813", "Longitude": "-113.97767814974473", "NAME": "Ian Bazalgette", "POSTAL_CODE": "T2B0C6", "PROVINCIAL_CODE": "9613", "TYPE": "Public School"}, "type": "Feature"}, {"geometry": {"coordinates": [-114.1289426450024, 50.93653288745854], "type": "Point"}, "properties": {"ADDRESS": "27 Woodfield Way S.W.", "BOARD": "The Calgary School Division", "GRADES": "Elementary", "Latitude": "50.93653288745854", "Longitude": "-114.1289426450024", "NAME": "Woodbine", "POSTAL_CODE": "T2W5E1", "PROVINCIAL_CODE": "9266", "TYPE": "Public School"}, "type": "Feature"}, {"geometry": {"coordinates": [-114.13924460893604, 51.124306794047094], "type": "Point"}, "properties": {"ADDRESS": "115 Edenwold Drive N.W.", "BOARD": "The Calgary Roman Catholic Separate School Division", "GRADES": "Elementary", "Latitude": "51.124306794047094", "Longitude": "-114.13924460893604", "NAME": "Mother Mary Greene", "POSTAL_CODE": "T3A3S8", "PROVINCIAL_CODE": "8553", "TYPE": "Separate School"}, "type": "Feature"}, {"geometry": {"coordinates": [-114.21192443519641, 51.096329284954884], "type": "Point"}, "properties": {"ADDRESS": "2050 - 21 Street N.E.", "BOARD": "Renfrew Educational Services Society", "GRADES": "Unknown", "Latitude": "51.096329284954884", "Longitude": "-114.21192443519641", "NAME": "Renfrew Educational Services-Bowness Centre", "POSTAL_CODE": "T3B2B2", "PROVINCIAL_CODE": "437", "TYPE": "Private School"}, "type": "Feature"}, {"geometry": {"coordinates": [-113.94279830389915, 51.04786053613119], "type": "Point"}, "properties": {"ADDRESS": "6333 - 5 Avenue S.E.", "BOARD": "The Calgary School Division", "GRADES": "Elementary", "Latitude": "51.04786053613119", "Longitude": "-113.94279830389915", "NAME": "James Short Memorial", "POSTAL_CODE": "T2A3V7", "PROVINCIAL_CODE": "9364", "TYPE": "Public School"}, "type": "Feature"}, {"geometry": {"coordinates": [-114.18346923619207, 51.14609434618282], "type": "Point"}, "properties": {"ADDRESS": "169 Citadel Ridge Close NW", "BOARD": "Yufeng Chinese School Centre", "GRADES": "Elementary/Junior High/Senior High", "Latitude": "51.14609434618282", "Longitude": "-114.18346923619207", "NAME": "Yufeng Chinese", "POSTAL_CODE": "T3G4V5", "PROVINCIAL_CODE": "1048", "TYPE": "Private School"}, "type": "Feature"}, {"geometry": {"coordinates": [-114.04681306876033, 50.90066056931126], "type": "Point"}, "properties": {"ADDRESS": "200 Sunmills Drive S.E.", "BOARD": "The Calgary School Division", "GRADES": "Elementary", "Latitude": "50.90066056931126", "Longitude": "-114.04681306876033", "NAME": "Sundance", "POSTAL_CODE": "T2X2N9", "PROVINCIAL_CODE": "9267", "TYPE": "Public School"}, "type": "Feature"}, {"geometry": {"coordinates": [-114.11468247256505, 51.05315071429952], "type": "Point"}, "properties": {"ADDRESS": "120 - 23 Street N.W.", "BOARD": "The Calgary School Division", "GRADES": "Junior High/Senior High", "Latitude": "51.05315071429952", "Longitude": "-114.11468247256505", "NAME": "Louise Dean", "POSTAL_CODE": "T2N2P1", "PROVINCIAL_CODE": "9626", "TYPE": "Public School"}, "type": "Feature"}, {"geometry": {"coordinates": [-114.06224040398533, 50.90932823045676], "type": "Point"}, "properties": {"ADDRESS": "#100, 295 Midpark Way S.E.", "BOARD": "The Palliser School Division", "GRADES": "Elementary/Junior High", "Latitude": "50.90932823045676", "Longitude": "-114.06224040398533", "NAME": "Trinity Christian", "POSTAL_CODE": "T2X2A8", "PROVINCIAL_CODE": "9973", "TYPE": "Public School"}, "type": "Feature"}, {"geometry": {"coordinates": [-114.07993205475249, 51.09243676151793], "type": "Point"}, "properties": {"ADDRESS": "412 Northmount Drive N.W.", "BOARD": "The Calgary School Division", "GRADES": "Elementary/Junior High", "Latitude": "51.09243676151793", "Longitude": "-114.07993205475249", "NAME": "Colonel Irvine", "POSTAL_CODE": "T2K3H6", "PROVINCIAL_CODE": "9622", "TYPE": "Public School"}, "type": "Feature"}, {"geometry": {"coordinates": [-114.21674984764452, 51.058437778528116], "type": "Point"}, "properties": {"ADDRESS": "8999 Wentworth Ave S.W.", "BOARD": "The Calgary School Division", "GRADES": "Elementary", "Latitude": "51.058437778528116", "Longitude": "-114.21674984764452", "NAME": "West Springs", "POSTAL_CODE": "T3H0P7", "PROVINCIAL_CODE": "1521", "TYPE": "Public School"}, "type": "Feature"}, {"geometry": {"coordinates": [-114.07954405545334, 51.056562375689474], "type": "Point"}, "properties": {"ADDRESS": "211 - 7 Street N.W.", "BOARD": "The Calgary School Division", "GRADES": "Elementary", "Latitude": "51.056562375689474", "Longitude": "-114.07954405545334", "NAME": "Sunnyside", "POSTAL_CODE": "T2N1S2", "PROVINCIAL_CODE": "9234", "TYPE": "Public School"}, "type": "Feature"}, {"geometry": {"coordinates": [-114.06816034687647, 51.035673117987145], "type": "Point"}, "properties": {"ADDRESS": "1916 2nd Street SW", "BOARD": "The Calgary Roman Catholic Separate School Division", "GRADES": "Elementary/Junior High", "Latitude": "51.035673117987145", "Longitude": "-114.06816034687647", "NAME": "Our Lady of Lourdes", "POSTAL_CODE": "T2S1S3", "PROVINCIAL_CODE": "598", "TYPE": "Separate School"}, "type": "Feature"}, {"geometry": {"coordinates": [-113.94506774810269, 51.06369308063351], "type": "Point"}, "properties": {"ADDRESS": "5808 Madigan Drive N.E.", "BOARD": "The Calgary School Division", "GRADES": "Elementary", "Latitude": "51.06369308063351", "Longitude": "-113.94506774810269", "NAME": "Cappy Smart", "POSTAL_CODE": "T2A4P5", "PROVINCIAL_CODE": "9353", "TYPE": "Public School"}, "type": "Feature"}, {"geometry": {"coordinates": [-114.08284602085331, 51.13167374028915], "type": "Point"}, "properties": {"ADDRESS": "333 Bermuda Drive N.W.", "BOARD": "The Calgary Roman Catholic Separate School Division", "GRADES": "Elementary", "Latitude": "51.13167374028915", "Longitude": "-114.08284602085331", "NAME": "St. Bede Elementary", "POSTAL_CODE": "T3K2J5", "PROVINCIAL_CODE": "8545", "TYPE": "Separate School"}, "type": "Feature"}, {"geometry": {"coordinates": [-113.96301096677269, 51.06375727132319], "type": "Point"}, "properties": {"ADDRESS": "5004 Marbank Drive N.E.", "BOARD": "The Calgary School Division", "GRADES": "Elementary", "Latitude": "51.06375727132319", "Longitude": "-113.96301096677269", "NAME": "Chris Akkerman", "POSTAL_CODE": "T2A3J6", "PROVINCIAL_CODE": "9339", "TYPE": "Public School"}, "type": "Feature"}, {"geometry": {"coordinates": [-114.05206912347656, 51.08060531306576], "type": "Point"}, "properties": {"ADDRESS": "509 - 32 Avenue N.E.", "BOARD": "The Calgary School Division", "GRADES": "Elementary/Junior High", "Latitude": "51.08060531306576", "Longitude": "-114.05206912347656", "NAME": "Georges P. Vanier", "POSTAL_CODE": "T2E2H3", "PROVINCIAL_CODE": "9635", "TYPE": "Public School"}, "type": "Feature"}, {"geometry": {"coordinates": [-113.94295031401309, 51.10642762038874], "type": "Point"}, "properties": {"ADDRESS": "180 Falshire Drive N.E.", "BOARD": "The Calgary School Division", "GRADES": "Elementary", "Latitude": "51.10642762038874", "Longitude": "-113.94295031401309", "NAME": "Grant MacEwan", "POSTAL_CODE": "T3J3A5", "PROVINCIAL_CODE": "9378", "TYPE": "Public School"}, "type": "Feature"}, {"geometry": {"coordinates": [-114.15895063553576, 51.02746774548578], "type": "Point"}, "properties": {"ADDRESS": "2839 - 49 Street S.W.", "BOARD": "The Palliser School Division", "GRADES": "Elementary", "Latitude": "51.02746774548578", "Longitude": "-114.15895063553576", "NAME": "Calgary Christian", "POSTAL_CODE": "T3E3X9", "PROVINCIAL_CODE": "9903", "TYPE": "Public School"}, "type": "Feature"}, {"geometry": {"coordinates": [-114.1152537080784, 50.903979506197274], "type": "Point"}, "properties": {"ADDRESS": "16520 - 24 Street S.W.", "BOARD": "GCA Educational Society", "GRADES": "Elementary", "Latitude": "50.903979506197274", "Longitude": "-114.1152537080784", "NAME": "Glenmore Christian Academy Elementary", "POSTAL_CODE": "T2Y4W2", "PROVINCIAL_CODE": "9928", "TYPE": "Private School"}, "type": "Feature"}, {"geometry": {"coordinates": [-114.17423451824506, 51.14545105898916], "type": "Point"}, "properties": {"ADDRESS": "808 Citadel Drive NW", "BOARD": "The Calgary School Division", "GRADES": "Elementary", "Latitude": "51.14545105898916", "Longitude": "-114.17423451824506", "NAME": "Citadel Park", "POSTAL_CODE": "T3G4B8", "PROVINCIAL_CODE": "1332", "TYPE": "Public School"}, "type": "Feature"}, {"geometry": {"coordinates": [-114.15192779878768, 51.069581060122125], "type": "Point"}, "properties": {"ADDRESS": "2116 McKay Road N.W.", "BOARD": "Foundations for the Future Charter Academy Charter School Society", "GRADES": "Junior High/Senior High", "Latitude": "51.069581060122125", "Longitude": "-114.15192779878768", "NAME": "FFCA High School Campus", "POSTAL_CODE": "T3B1C7", "PROVINCIAL_CODE": "12", "TYPE": "Charter"}, "type": "Feature"}, {"geometry": {"coordinates": [-114.14030684447422, 51.04428798607457], "type": "Point"}, "properties": {"ADDRESS": "#3, 1002 - 37 Street S.W", "BOARD": "The Calgary School Division", "GRADES": "Senior High", "Latitude": "51.04428798607457", "Longitude": "-114.14030684447422", "NAME": "Westbrook Outreach", "POSTAL_CODE": "T3C1S1", "PROVINCIAL_CODE": "1260", "TYPE": "Public School"}, "type": "Feature"}, {"geometry": {"coordinates": [-114.11533747920511, 51.07866950960592], "type": "Point"}, "properties": {"ADDRESS": "3009 Morley Trail N.W.", "BOARD": "The Calgary School Division", "GRADES": "Senior High", "Latitude": "51.07866950960592", "Longitude": "-114.11533747920511", "NAME": "William Aberhart High", "POSTAL_CODE": "T2M4G9", "PROVINCIAL_CODE": "9829", "TYPE": "Public School"}, "type": "Feature"}, {"geometry": {"coordinates": [-113.94196158175765, 51.0930202653202], "type": "Point"}, "properties": {"ADDRESS": "6839 Temple Drive N.E.", "BOARD": "The Calgary Roman Catholic Separate School Division", "GRADES": "Elementary/Junior High", "Latitude": "51.0930202653202", "Longitude": "-113.94196158175765", "NAME": "Father Scollen", "POSTAL_CODE": "T1Y5N4", "PROVINCIAL_CODE": "8730", "TYPE": "Separate School"}, "type": "Feature"}, {"geometry": {"coordinates": [-114.13663866225768, 51.04972149625456], "type": "Point"}, "properties": {"ADDRESS": "3405 Spruce Drive S.W. c/o Spruce Cliff Elementary", "BOARD": "Calgary Quest Children's Society", "GRADES": "Elementary/Junior High/Senior High", "Latitude": "51.04972149625456", "Longitude": "-114.13663866225768", "NAME": "Calgary Quest", "POSTAL_CODE": "T3C0A5", "PROVINCIAL_CODE": "5398", "TYPE": "Private School"}, "type": "Feature"}, {"geometry": {"coordinates": [-114.0100177139546, 50.974095342521984], "type": "Point"}, "properties": {"ADDRESS": "275 Riverglen Drive SE", "BOARD": "The Calgary Roman Catholic Separate School Division", "GRADES": "Elementary", "Latitude": "50.974095342521984", "Longitude": "-114.0100177139546", "NAME": "Holy Angels", "POSTAL_CODE": "T2C3T5", "PROVINCIAL_CODE": "389", "TYPE": "Separate School"}, "type": "Feature"}, {"geometry": {"coordinates": [-113.9491070038722, 51.04618504013325], "type": "Point"}, "properties": {"ADDRESS": "720 - 58 Street S.E.", "BOARD": "The Calgary Roman Catholic Separate School Division", "GRADES": "Elementary", "Latitude": "51.04618504013325", "Longitude": "-113.9491070038722", "NAME": "St. Peter Elementary", "POSTAL_CODE": "T2A5L9", "PROVINCIAL_CODE": "8543", "TYPE": "Separate School"}, "type": "Feature"}, {"geometry": {"coordinates": [-113.96780043824887, 51.100646976645564], "type": "Point"}, "properties": {"ADDRESS": "Bay 204 & 206 4656 Westwinds Dr NE", "BOARD": "Philippine Cultural Center Foundation (Calgary)", "GRADES": "Unknown", "Latitude": "51.100646976645564", "Longitude": "-113.96780043824887", "NAME": "Filipino Language and Cultural School of Calgary", "POSTAL_CODE": "T3J3Z5", "PROVINCIAL_CODE": "1440", "TYPE": "Private School"}, "type": "Feature"}, {"geometry": {"coordinates": [-114.00545627006355, 51.10115940461863], "type": "Point"}, "properties": {"ADDRESS": "", "BOARD": "", "GRADES": "", "Latitude": "51.10115940461863", "Longitude": "-114.00545627006355", "NAME": "SAIT - Art Smith Aero Centre", "POSTAL_CODE": "T2E9B5", "PROVINCIAL_CODE": "", "TYPE": "Post Secondary"}, "type": "Feature"}, {"geometry": {"coordinates": [-114.06776192397147, 51.111506695433164], "type": "Point"}, "properties": {"ADDRESS": "320 - 64 Avenue N.W.", "BOARD": "The Calgary Roman Catholic Separate School Division", "GRADES": "Junior High", "Latitude": "51.111506695433164", "Longitude": "-114.06776192397147", "NAME": "St. Helena", "POSTAL_CODE": "T2K0L8", "PROVINCIAL_CODE": "8711", "TYPE": "Separate School"}, "type": "Feature"}, {"geometry": {"coordinates": [-114.07745685947732, 51.11220898218321], "type": "Point"}, "properties": {"ADDRESS": "820 - 64 Avenue N.W.", "BOARD": "The Calgary School Division", "GRADES": "Elementary", "Latitude": "51.11220898218321", "Longitude": "-114.07745685947732", "NAME": "Huntington Hills", "POSTAL_CODE": "T2K0M5", "PROVINCIAL_CODE": "9219", "TYPE": "Public School"}, "type": "Feature"}, {"geometry": {"coordinates": [-114.14834556903074, 51.07449452086541], "type": "Point"}, "properties": {"ADDRESS": "28 Oki Drive NW", "BOARD": "The Calgary School Division", "GRADES": "Elementary/Junior High/Senior High", "Latitude": "51.07449452086541", "Longitude": "-114.14834556903074", "NAME": "Dr. Gordon Townsend", "POSTAL_CODE": "T3B6A8", "PROVINCIAL_CODE": "9886", "TYPE": "Public School"}, "type": "Feature"}, {"geometry": {"coordinates": [-113.9749455922452, 51.03897000809795], "type": "Point"}, "properties": {"ADDRESS": "1717 - 41 Street S.E.", "BOARD": "The Calgary Roman Catholic Separate School Division", "GRADES": "Elementary", "Latitude": "51.03897000809795", "Longitude": "-113.9749455922452", "NAME": "Holy Trinity", "POSTAL_CODE": "T2A1L2", "PROVINCIAL_CODE": "8506", "TYPE": "Separate School"}, "type": "Feature"}, {"geometry": {"coordinates": [-114.08516887028918, 50.90934423016021], "type": "Point"}, "properties": {"ADDRESS": "65 Shannon Drive S.W.", "BOARD": "The Calgary Roman Catholic Separate School Division", "GRADES": "Elementary", "Latitude": "50.90934423016021", "Longitude": "-114.08516887028918", "NAME": "Father Doucet", "POSTAL_CODE": "T2Y2T5", "PROVINCIAL_CODE": "8551", "TYPE": "Separate School"}, "type": "Feature"}, {"geometry": {"coordinates": [-114.20553045185602, 51.05033672369609], "type": "Point"}, "properties": {"ADDRESS": "1580 Strathcona Drive", "BOARD": "The Calgary School Division", "GRADES": "Elementary", "Latitude": "51.05033672369609", "Longitude": "-114.20553045185602", "NAME": "Dr. Roberta Bondar", "POSTAL_CODE": "T3H5B1", "PROVINCIAL_CODE": "2054", "TYPE": "Public School"}, "type": "Feature"}, {"geometry": {"coordinates": [-114.13272034345307, 51.01280496081857], "type": "Point"}, "properties": {"ADDRESS": "", "BOARD": "", "GRADES": "", "Latitude": "51.01280496081857", "Longitude": "-114.13272034345307", "NAME": "Mount Royal University - Lincoln Park Campus", "POSTAL_CODE": "T3E6K6", "PROVINCIAL_CODE": "", "TYPE": "Post Secondary"}, "type": "Feature"}, {"geometry": {"coordinates": [-113.95370587813335, 51.10303042065591], "type": "Point"}, "properties": {"ADDRESS": "5700 Falconridge Boulevard N.E", "BOARD": "The Calgary Roman Catholic Separate School Division", "GRADES": "Senior High", "Latitude": "51.10303042065591", "Longitude": "-113.95370587813335", "NAME": "Bishop McNally High", "POSTAL_CODE": "T3J3N4", "PROVINCIAL_CODE": "8907", "TYPE": "Separate School"}, "type": "Feature"}, {"geometry": {"coordinates": [-114.11675875440444, 51.08163947732653], "type": "Point"}, "properties": {"ADDRESS": "3232 Cochrane Road N.W.", "BOARD": "The Calgary School Division", "GRADES": "Elementary", "Latitude": "51.08163947732653", "Longitude": "-114.11675875440444", "NAME": "Banff Trail", "POSTAL_CODE": "T2M4J3", "PROVINCIAL_CODE": "9202", "TYPE": "Public School"}, "type": "Feature"}, {"geometry": {"coordinates": [-113.94401042589116, 50.87802220548302], "type": "Point"}, "properties": {"ADDRESS": "19480-45 Street SE", "BOARD": "The Calgary School Division", "GRADES": "Senior High", "Latitude": "50.87802220548302", "Longitude": "-113.94401042589116", "NAME": "Joane Cardinal-Schubert High", "POSTAL_CODE": "T3M2P9", "PROVINCIAL_CODE": "2180", "TYPE": "Public School"}, "type": "Feature"}, {"geometry": {"coordinates": [-113.9603709219802, 51.04456881302903], "type": "Point"}, "properties": {"ADDRESS": "5105 - 8 Avenue S.E.", "BOARD": "The Calgary School Division", "GRADES": "Senior High", "Latitude": "51.04456881302903", "Longitude": "-113.9603709219802", "NAME": "Jack James High", "POSTAL_CODE": "T2A4M1", "PROVINCIAL_CODE": "9856", "TYPE": "Public School"}, "type": "Feature"}, {"geometry": {"coordinates": [-114.07653283629118, 51.09224356654587], "type": "Point"}, "properties": {"ADDRESS": "11 Holmwood Avenue N.W.", "BOARD": "The Calgary School Division", "GRADES": "Elementary", "Latitude": "51.09224356654587", "Longitude": "-114.07653283629118", "NAME": "Highwood", "POSTAL_CODE": "T2K2G5", "PROVINCIAL_CODE": "9217", "TYPE": "Public School"}, "type": "Feature"}, {"geometry": {"coordinates": [-114.22102650153242, 51.08479481248623], "type": "Point"}, "properties": {"ADDRESS": "Suite 110 151 Canada Olympic Road SW", "BOARD": "The Calgary School Division", "GRADES": "Junior High/Senior High", "Latitude": "51.08479481248623", "Longitude": "-114.22102650153242", "NAME": "National Sport", "POSTAL_CODE": "T3B6B7", "PROVINCIAL_CODE": "9830", "TYPE": "Public School"}, "type": "Feature"}, {"geometry": {"coordinates": [-114.06506248328446, 50.97532111856723], "type": "Point"}, "properties": {"ADDRESS": "315 - 86 Avenue SE", "BOARD": "The Calgary School Division", "GRADES": "Unknown", "Latitude": "50.97532111856723", "Longitude": "-114.06506248328446", "NAME": "Juno Beach Academy of Canadian Studies", "POSTAL_CODE": "T2H1Z2", "PROVINCIAL_CODE": "1125", "TYPE": "Public School"}, "type": "Feature"}, {"geometry": {"coordinates": [-113.96232802358581, 50.89675500363867], "type": "Point"}, "properties": {"ADDRESS": "7 Auburn Bay Avenue SE", "BOARD": "The Calgary School Division", "GRADES": "Elementary", "Latitude": "50.89675500363867", "Longitude": "-113.96232802358581", "NAME": "Auburn Bay", "POSTAL_CODE": "T3M0K6", "PROVINCIAL_CODE": "2085", "TYPE": "Public School"}, "type": "Feature"}, {"geometry": {"coordinates": [-114.08903891122489, 50.955473385203646], "type": "Point"}, "properties": {"ADDRESS": "255 Sackville Drive S.W.", "BOARD": "The Calgary School Division", "GRADES": "Elementary", "Latitude": "50.955473385203646", "Longitude": "-114.08903891122489", "NAME": "Ethel M. Johnson", "POSTAL_CODE": "T2W0W7", "PROVINCIAL_CODE": "9310", "TYPE": "Public School"}, "type": "Feature"}, {"geometry": {"coordinates": [-114.0112906602318, 51.06419425657124], "type": "Point"}, "properties": {"ADDRESS": "1140 Mayland Drive NE", "BOARD": "Foundations for the Future Charter Academy Charter School Society", "GRADES": "Elementary", "Latitude": "51.06419425657124", "Longitude": "-114.0112906602318", "NAME": "Northeast Elementary Campus", "POSTAL_CODE": "T2E6C8", "PROVINCIAL_CODE": "1349", "TYPE": "Charter"}, "type": "Feature"}, {"geometry": {"coordinates": [-114.07996898891147, 51.119225067265795], "type": "Point"}, "properties": {"ADDRESS": "7440 - 10 Street N.W.", "BOARD": "The Calgary School Division", "GRADES": "Elementary", "Latitude": "51.119225067265795", "Longitude": "-114.07996898891147", "NAME": "Dr. J. K. Mulloy", "POSTAL_CODE": "T2K1H6", "PROVINCIAL_CODE": "9242", "TYPE": "Public School"}, "type": "Feature"}, {"geometry": {"coordinates": [-113.92880594668131, 50.91483203792721], "type": "Point"}, "properties": {"ADDRESS": "54 Copperstone Road SE", "BOARD": "The Calgary School Division", "GRADES": "Elementary", "Latitude": "50.91483203792721", "Longitude": "-113.92880594668131", "NAME": "Copperfield", "POSTAL_CODE": "T2Z0G7", "PROVINCIAL_CODE": "2086", "TYPE": "Public School"}, "type": "Feature"}, {"geometry": {"coordinates": [-114.21646538352098, 51.04062872834203], "type": "Point"}, "properties": {"ADDRESS": "20 Aspen Hills Dr. SW", "BOARD": "The Calgary Roman Catholic Separate School Division", "GRADES": "Elementary", "Latitude": "51.04062872834203", "Longitude": "-114.21646538352098", "NAME": "Guardian Angel", "POSTAL_CODE": "T3H0G5", "PROVINCIAL_CODE": "2156", "TYPE": "Separate School"}, "type": "Feature"}, {"geometry": {"coordinates": [-114.05314715222983, 51.05374630295557], "type": "Point"}, "properties": {"ADDRESS": "416-1 Avenue N.E.", "BOARD": "Centro Linguistico E Culturale Italiano Calgary", "GRADES": "Junior High/Senior High", "Latitude": "51.05374630295557", "Longitude": "-114.05314715222983", "NAME": "Italian School of Calgary", "POSTAL_CODE": "T2E0B4", "PROVINCIAL_CODE": "9926", "TYPE": "Private School"}, "type": "Feature"}, {"geometry": {"coordinates": [-113.9689496478143, 51.042403074671775], "type": "Point"}, "properties": {"ADDRESS": "1304 - 44 Street S.E.", "BOARD": "The Calgary School Division", "GRADES": "Senior High", "Latitude": "51.042403074671775", "Longitude": "-113.9689496478143", "NAME": "Forest Lawn High", "POSTAL_CODE": "T2A1M8", "PROVINCIAL_CODE": "9813", "TYPE": "Public School"}, "type": "Feature"}, {"geometry": {"coordinates": [-114.04924221170057, 51.03940197866345], "type": "Point"}, "properties": {"ADDRESS": "640 14th Avenue S.E.", "BOARD": "Calgary Arts Academy Society", "GRADES": "Elementary/Junior High", "Latitude": "51.03940197866345", "Longitude": "-114.04924221170057", "NAME": "Calgary Arts Academy", "POSTAL_CODE": "T2G1E8", "PROVINCIAL_CODE": "1126", "TYPE": "Charter"}, "type": "Feature"}, {"geometry": {"coordinates": [-114.19474696299017, 51.03097940794404], "type": "Point"}, "properties": {"ADDRESS": "7652 - 26 Avenue", "BOARD": "The Calgary School Division", "GRADES": "Elementary/Junior High", "Latitude": "51.03097940794404", "Longitude": "-114.19474696299017", "NAME": "Griffith Woods", "POSTAL_CODE": "T3H3X2", "PROVINCIAL_CODE": "2147", "TYPE": "Public School"}, "type": "Feature"}, {"geometry": {"coordinates": [-114.14478223145807, 51.041216383098565], "type": "Point"}, "properties": {"ADDRESS": "1406 - 40 Street S.W.", "BOARD": "The Calgary School Division", "GRADES": "Elementary", "Latitude": "51.041216383098565", "Longitude": "-114.14478223145807", "NAME": "Rosscarrock", "POSTAL_CODE": "T3C1W7", "PROVINCIAL_CODE": "9133", "TYPE": "Public School"}, "type": "Feature"}, {"geometry": {"coordinates": [-114.06428792878233, 51.05161459047532], "type": "Point"}, "properties": {"ADDRESS": "126 2nd Avenue S.W", "BOARD": "The Calgary Chinese Public School Society", "GRADES": "Senior High", "Latitude": "51.05161459047532", "Longitude": "-114.06428792878233", "NAME": "Calgary Chinese Private", "POSTAL_CODE": "T2P0B9", "PROVINCIAL_CODE": "9963", "TYPE": "Private School"}, "type": "Feature"}, {"geometry": {"coordinates": [-114.19731968898843, 51.03671308605097], "type": "Point"}, "properties": {"ADDRESS": "7615 - 17 Ave SW", "BOARD": "Rundle College Society", "GRADES": "Elementary", "Latitude": "51.03671308605097", "Longitude": "-114.19731968898843", "NAME": "Rundle College Elementary", "POSTAL_CODE": "T3H3W5", "PROVINCIAL_CODE": "9979", "TYPE": "Private School"}, "type": "Feature"}, {"geometry": {"coordinates": [-113.94919550351989, 51.07461347536657], "type": "Point"}, "properties": {"ADDRESS": "5840 - 24 Avenue N.E.", "BOARD": "The Calgary School Division", "GRADES": "Junior High", "Latitude": "51.07461347536657", "Longitude": "-113.94919550351989", "NAME": "Clarence Sansom", "POSTAL_CODE": "T1Y6G4", "PROVINCIAL_CODE": "9682", "TYPE": "Public School"}, "type": "Feature"}, {"geometry": {"coordinates": [-114.1743440902455, 51.079469412856646], "type": "Point"}, "properties": {"ADDRESS": "3127 Bowwood Drive N.W.", "BOARD": "River Valley School Society", "GRADES": "Unknown", "Latitude": "51.079469412856646", "Longitude": "-114.1743440902455", "NAME": "River Valley School ECS", "POSTAL_CODE": "T3B2E7", "PROVINCIAL_CODE": "1906", "TYPE": "Private School"}, "type": "Feature"}, {"geometry": {"coordinates": [-114.00829174988903, 51.069616982582104], "type": "Point"}, "properties": {"ADDRESS": "2050 - 21 Street N.E.", "BOARD": "Renfrew Educational Services Society", "GRADES": "Unknown", "Latitude": "51.069616982582104", "Longitude": "-114.00829174988903", "NAME": "Renfrew Educational Services - Park Place Centre", "POSTAL_CODE": "T2E6S5", "PROVINCIAL_CODE": "281", "TYPE": "Private School"}, "type": "Feature"}, {"geometry": {"coordinates": [-114.19477825950254, 51.1308413397963], "type": "Point"}, "properties": {"ADDRESS": "8777 Nose Hill Drive N.W.", "BOARD": "The Calgary School Division", "GRADES": "Senior High", "Latitude": "51.1308413397963", "Longitude": "-114.19477825950254", "NAME": "Robert Thirsk", "POSTAL_CODE": "T3G5T3", "PROVINCIAL_CODE": "1679", "TYPE": "Public School"}, "type": "Feature"}, {"geometry": {"coordinates": [-114.06183138040169, 50.969178756738906], "type": "Point"}, "properties": {"ADDRESS": "360 - 94 Avenue S.E.", "BOARD": "The Southern Francophone Education Region", "GRADES": "Elementary/Junior High/Senior High", "Latitude": "50.969178756738906", "Longitude": "-114.06183138040169", "NAME": "Ecole de La Source", "POSTAL_CODE": "T2J0E8", "PROVINCIAL_CODE": "1014", "TYPE": "Francophone"}, "type": "Feature"}, {"geometry": {"coordinates": [-114.1542440563493, 51.109558751484805], "type": "Point"}, "properties": {"ADDRESS": "4820 Dalhart Road N.W.", "BOARD": "The Calgary Roman Catholic Separate School Division", "GRADES": "Elementary", "Latitude": "51.109558751484805", "Longitude": "-114.1542440563493", "NAME": "St. Dominic", "POSTAL_CODE": "T3A1C2", "PROVINCIAL_CODE": "8531", "TYPE": "Separate School"}, "type": "Feature"}, {"geometry": {"coordinates": [-114.13225791942196, 50.96673112642772], "type": "Point"}, "properties": {"ADDRESS": "9632 Oakfield Drive S.W.", "BOARD": "The Calgary School Division", "GRADES": "Elementary/Junior High", "Latitude": "50.96673112642772", "Longitude": "-114.13225791942196", "NAME": "Louis Riel", "POSTAL_CODE": "T2V0L1", "PROVINCIAL_CODE": "9625", "TYPE": "Public School"}, "type": "Feature"}, {"geometry": {"coordinates": [-113.95651306852255, 51.15841731143543], "type": "Point"}, "properties": {"ADDRESS": "15 Skyview Ranch Street NE", "BOARD": "The Calgary Roman Catholic Separate School Division", "GRADES": "Elementary/Junior High", "Latitude": "51.15841731143543", "Longitude": "-113.95651306852255", "NAME": "Apostles of Jesus", "POSTAL_CODE": "T3N1H6", "PROVINCIAL_CODE": "2155", "TYPE": "Separate School"}, "type": "Feature"}, {"geometry": {"coordinates": [-114.09034281185752, 51.02217450136028], "type": "Point"}, "properties": {"ADDRESS": "1216 - 36 Avenue S.W.", "BOARD": "The Calgary School Division", "GRADES": "Elementary", "Latitude": "51.02217450136028", "Longitude": "-114.09034281185752", "NAME": "William Reid", "POSTAL_CODE": "T2T2E9", "PROVINCIAL_CODE": "9142", "TYPE": "Public School"}, "type": "Feature"}, {"geometry": {"coordinates": [-114.10340626317118, 51.072972533433195], "type": "Point"}, "properties": {"ADDRESS": "2312 - 18 Street N.W.", "BOARD": "The Calgary Roman Catholic Separate School Division", "GRADES": "Elementary", "Latitude": "51.072972533433195", "Longitude": "-114.10340626317118", "NAME": "Ecole St. Pius X", "POSTAL_CODE": "T2M3T5", "PROVINCIAL_CODE": "8524", "TYPE": "Separate School"}, "type": "Feature"}, {"geometry": {"coordinates": [-113.98885844209255, 50.90733934148648], "type": "Point"}, "properties": {"ADDRESS": "16201 McKenzie Lake Boulevard S.E.", "BOARD": "The Calgary Roman Catholic Separate School Division", "GRADES": "Elementary/Junior High", "Latitude": "50.90733934148648", "Longitude": "-113.98885844209255", "NAME": "St. John Henry Newman", "POSTAL_CODE": "T2Z2G7", "PROVINCIAL_CODE": "8731", "TYPE": "Separate School"}, "type": "Feature"}, {"geometry": {"coordinates": [-114.01212291757233, 50.984496584508484], "type": "Point"}, "properties": {"ADDRESS": "118, 3132-26 St NE", "BOARD": "Almadina School Society", "GRADES": "Elementary/Junior High", "Latitude": "50.984496584508484", "Longitude": "-114.01212291757233", "NAME": "Almadina Language Charter Academy, Ogden Campus", "POSTAL_CODE": "T2C0G8", "PROVINCIAL_CODE": "1725", "TYPE": "Charter"}, "type": "Feature"}, {"geometry": {"coordinates": [-114.07051630306398, 51.08653214680896], "type": "Point"}, "properties": {"ADDRESS": "4004 4 St NE", "BOARD": "The Calgary School Division", "GRADES": "Unknown", "Latitude": "51.08653214680896", "Longitude": "-114.07051630306398", "NAME": "CLS James Fowler Writing Centre", "POSTAL_CODE": "T2K1A1", "PROVINCIAL_CODE": "2246", "TYPE": "Public School"}, "type": "Feature"}, {"geometry": {"coordinates": [-113.95942254994074, 51.12330682184331], "type": "Point"}, "properties": {"ADDRESS": "1027 Martindale Blvd. NE", "BOARD": "The Calgary School Division", "GRADES": "Elementary", "Latitude": "51.12330682184331", "Longitude": "-113.95942254994074", "NAME": "Manmeet Singh Bhullar", "POSTAL_CODE": "T3J4Z1", "PROVINCIAL_CODE": "2145", "TYPE": "Public School"}, "type": "Feature"}, {"geometry": {"coordinates": [-114.12048660255113, 51.179339437701934], "type": "Point"}, "properties": {"ADDRESS": "736 Evanston Drive", "BOARD": "The Calgary Roman Catholic Separate School Division", "GRADES": "Elementary/Junior High", "Latitude": "51.179339437701934", "Longitude": "-114.12048660255113", "NAME": "Our Lady of Grace", "POSTAL_CODE": "T3P0N7", "PROVINCIAL_CODE": "2083", "TYPE": "Separate School"}, "type": "Feature"}, {"geometry": {"coordinates": [-114.0561994182128, 51.04769511419567], "type": "Point"}, "properties": {"ADDRESS": "", "BOARD": "", "GRADES": "", "Latitude": "51.04769511419567", "Longitude": "-114.0561994182128", "NAME": "Bow Valley College", "POSTAL_CODE": "T2G4S6", "PROVINCIAL_CODE": "", "TYPE": "Post Secondary"}, "type": "Feature"}, {"geometry": {"coordinates": [-113.97933712379474, 51.02058871132544], "type": "Point"}, "properties": {"ADDRESS": "3743 Dover Ridge Drive S.W.", "BOARD": "The Calgary School Division", "GRADES": "Elementary", "Latitude": "51.02058871132544", "Longitude": "-113.97933712379474", "NAME": "Niitsitapi Learning Centre", "POSTAL_CODE": "T2B2E1", "PROVINCIAL_CODE": "2123", "TYPE": "Public School"}, "type": "Feature"}, {"geometry": {"coordinates": [-114.08737559285785, 50.90813212324954], "type": "Point"}, "properties": {"ADDRESS": "115 Shannon Drive S.W.", "BOARD": "The Calgary School Division", "GRADES": "Elementary/Junior High", "Latitude": "50.90813212324954", "Longitude": "-114.08737559285785", "NAME": "Samuel W. Shaw", "POSTAL_CODE": "T2Y0K6", "PROVINCIAL_CODE": "1451", "TYPE": "Public School"}, "type": "Feature"}, {"geometry": {"coordinates": [-114.10325751411635, 51.08578192419336], "type": "Point"}, "properties": {"ADDRESS": "3826 Collingwood Drive N.W.", "BOARD": "The Calgary School Division", "GRADES": "Elementary", "Latitude": "51.08578192419336", "Longitude": "-114.10325751411635", "NAME": "Collingwood", "POSTAL_CODE": "T2L0R6", "PROVINCIAL_CODE": "9212", "TYPE": "Public School"}, "type": "Feature"}, {"geometry": {"coordinates": [-114.1152537080784, 50.903979506197274], "type": "Point"}, "properties": {"ADDRESS": "16520-24 Street SW", "BOARD": "GCA Educational Society", "GRADES": "Elementary/Junior High", "Latitude": "50.903979506197274", "Longitude": "-114.1152537080784", "NAME": "Glenmore Christian Academy Junior High", "POSTAL_CODE": "T2Y4W2", "PROVINCIAL_CODE": "1956", "TYPE": "Private School"}, "type": "Feature"}, {"geometry": {"coordinates": [-114.01147842270753, 50.99369667860713], "type": "Point"}, "properties": {"ADDRESS": "2011 - 66 Avenue S.E.", "BOARD": "The Calgary School Division", "GRADES": "Elementary/Junior High", "Latitude": "50.99369667860713", "Longitude": "-114.01147842270753", "NAME": "Sherwood", "POSTAL_CODE": "T2C1J4", "PROVINCIAL_CODE": "9632", "TYPE": "Public School"}, "type": "Feature"}, {"geometry": {"coordinates": [-113.98610394866746, 51.08843780136255], "type": "Point"}, "properties": {"ADDRESS": "3915 34 Street NE", "BOARD": "Mountain View Academy Society", "GRADES": "Elementary/Junior High/Senior High", "Latitude": "51.08843780136255", "Longitude": "-113.98610394866746", "NAME": "Mountain View Academy", "POSTAL_CODE": "T1Y6Z8", "PROVINCIAL_CODE": "308", "TYPE": "Private School"}, "type": "Feature"}, {"geometry": {"coordinates": [-114.0782137031807, 51.0108833841301], "type": "Point"}, "properties": {"ADDRESS": "4804 - 6 Street S.W.", "BOARD": "The Calgary School Division", "GRADES": "Elementary/Junior High", "Latitude": "51.0108833841301", "Longitude": "-114.0782137031807", "NAME": "Elboya", "POSTAL_CODE": "T2S2N3", "PROVINCIAL_CODE": "9627", "TYPE": "Public School"}, "type": "Feature"}, {"geometry": {"coordinates": [-114.07754756915828, 51.036994753559966], "type": "Point"}, "properties": {"ADDRESS": "641 - 17 Avenue S.W.", "BOARD": "The Calgary School Division", "GRADES": "Senior High", "Latitude": "51.036994753559966", "Longitude": "-114.07754756915828", "NAME": "Western Canada High", "POSTAL_CODE": "T2S0B5", "PROVINCIAL_CODE": "9816", "TYPE": "Public School"}, "type": "Feature"}, {"geometry": {"coordinates": [-114.16140627211097, 51.092916584148945], "type": "Point"}, "properties": {"ADDRESS": "5225 Varsity Drive N.W.", "BOARD": "The Calgary School Division", "GRADES": "Elementary", "Latitude": "51.092916584148945", "Longitude": "-114.16140627211097", "NAME": "Marion Carson", "POSTAL_CODE": "T3A1A7", "PROVINCIAL_CODE": "9241", "TYPE": "Public School"}, "type": "Feature"}, {"geometry": {"coordinates": [-114.14557999709048, 51.03246723051752], "type": "Point"}, "properties": {"ADDRESS": "2415 Kelwood Drive S.W.", "BOARD": "The Calgary School Division", "GRADES": "Elementary", "Latitude": "51.03246723051752", "Longitude": "-114.14557999709048", "NAME": "Glendale", "POSTAL_CODE": "T3E3Z8", "PROVINCIAL_CODE": "9143", "TYPE": "Public School"}, "type": "Feature"}, {"geometry": {"coordinates": [-114.17920972929103, 51.11870483095547], "type": "Point"}, "properties": {"ADDRESS": "610 Ranchlands Boulevard N.W.", "BOARD": "The Calgary School Division", "GRADES": "Elementary", "Latitude": "51.11870483095547", "Longitude": "-114.17920972929103", "NAME": "Ranchlands", "POSTAL_CODE": "T3G2C5", "PROVINCIAL_CODE": "9374", "TYPE": "Public School"}, "type": "Feature"}, {"geometry": {"coordinates": [-114.11089765413911, 51.0413434048884], "type": "Point"}, "properties": {"ADDRESS": "536 Sonora Avenue S.W.", "BOARD": "The Calgary School Division", "GRADES": "Elementary", "Latitude": "51.0413434048884", "Longitude": "-114.11089765413911", "NAME": "Sunalta", "POSTAL_CODE": "T3C2J9", "PROVINCIAL_CODE": "9368", "TYPE": "Public School"}, "type": "Feature"}, {"geometry": {"coordinates": [-114.14821824727312, 51.09101439261288], "type": "Point"}, "properties": {"ADDRESS": "4255 40 Street NW", "BOARD": "The Calgary School Division", "GRADES": "Elementary", "Latitude": "51.09101439261288", "Longitude": "-114.14821824727312", "NAME": "Varsity Acres", "POSTAL_CODE": "T3A0H7", "PROVINCIAL_CODE": "9238", "TYPE": "Public School"}, "type": "Feature"}, {"geometry": {"coordinates": [-114.07030340753766, 51.074844648813006], "type": "Point"}, "properties": {"ADDRESS": "2512 - 4 Street N.W.", "BOARD": "The Southern Francophone Education Region", "GRADES": "Junior High/Senior High", "Latitude": "51.074844648813006", "Longitude": "-114.07030340753766", "NAME": "Ecole de la Rose Sauvage", "POSTAL_CODE": "T2M2Z9", "PROVINCIAL_CODE": "9228", "TYPE": "Francophone"}, "type": "Feature"}, {"geometry": {"coordinates": [-114.18951597666997, 51.18697361629044], "type": "Point"}, "properties": {"ADDRESS": "15001 - 69 Street NW", "BOARD": "Bearspaw Christian School Society", "GRADES": "Elementary/Junior High/Senior High", "Latitude": "51.18697361629044", "Longitude": "-114.18951597666997", "NAME": "Bearspaw Christian School & College", "POSTAL_CODE": "T3R1C5", "PROVINCIAL_CODE": "9927", "TYPE": "Private School"}, "type": "Feature"}, {"geometry": {"coordinates": [-113.95639757416347, 51.076949920555364], "type": "Point"}, "properties": {"ADDRESS": "3020 - 52 Street N.E.", "BOARD": "The Calgary School Division", "GRADES": "Senior High", "Latitude": "51.076949920555364", "Longitude": "-113.95639757416347", "NAME": "Lester B. Pearson High", "POSTAL_CODE": "T1Y5P4", "PROVINCIAL_CODE": "9865", "TYPE": "Public School"}, "type": "Feature"}, {"geometry": {"coordinates": [-113.94884571068388, 51.12198056503717], "type": "Point"}, "properties": {"ADDRESS": "45 Saddletowne Circle NE", "BOARD": "The Calgary School Division", "GRADES": "Senior High", "Latitude": "51.12198056503717", "Longitude": "-113.94884571068388", "NAME": "Nelson Mandela High", "POSTAL_CODE": "T3J4W3", "PROVINCIAL_CODE": "1989", "TYPE": "Public School"}, "type": "Feature"}, {"geometry": {"coordinates": [-114.09973324841206, 51.014002662591665], "type": "Point"}, "properties": {"ADDRESS": "4506 - 16 Street S.W.", "BOARD": "The Calgary School Division", "GRADES": "Elementary", "Latitude": "51.014002662591665", "Longitude": "-114.09973324841206", "NAME": "Altadore", "POSTAL_CODE": "T2T4H9", "PROVINCIAL_CODE": "9109", "TYPE": "Public School"}, "type": "Feature"}, {"geometry": {"coordinates": [-114.1518543511971, 51.03097219077775], "type": "Point"}, "properties": {"ADDRESS": "4540 - 26 Avenue S.W.", "BOARD": "The Calgary Roman Catholic Separate School Division", "GRADES": "Elementary", "Latitude": "51.03097219077775", "Longitude": "-114.1518543511971", "NAME": "St. Thomas Aquinas", "POSTAL_CODE": "T3E0R1", "PROVINCIAL_CODE": "8527", "TYPE": "Separate School"}, "type": "Feature"}, {"geometry": {"coordinates": [-113.97080229585185, 50.87786253882289], "type": "Point"}, "properties": {"ADDRESS": "126 Cranford Drive SE", "BOARD": "The Calgary School Division", "GRADES": "Unknown", "Latitude": "50.87786253882289", "Longitude": "-113.97080229585185", "NAME": "Sibylla Kiddle", "POSTAL_CODE": "", "PROVINCIAL_CODE": "2281", "TYPE": "Public School"}, "type": "Feature"}, {"geometry": {"coordinates": [-113.94152909003293, 51.05889221373373], "type": "Point"}, "properties": {"ADDRESS": "6033 Madigan Dr. NE", "BOARD": "The Calgary School Division", "GRADES": "Elementary/Junior High", "Latitude": "51.05889221373373", "Longitude": "-113.94152909003293", "NAME": "Dr. Gladys McKelvie Egbert", "POSTAL_CODE": "T2A5G9", "PROVINCIAL_CODE": "9350", "TYPE": "Public School"}, "type": "Feature"}, {"geometry": {"coordinates": [-114.08661278743479, 51.09750907704134], "type": "Point"}, "properties": {"ADDRESS": "4922 North Haven Drive N.W.", "BOARD": "The Calgary School Division", "GRADES": "Elementary", "Latitude": "51.09750907704134", "Longitude": "-114.08661278743479", "NAME": "North Haven", "POSTAL_CODE": "T2K2K2", "PROVINCIAL_CODE": "9225", "TYPE": "Public School"}, "type": "Feature"}, {"geometry": {"coordinates": [-114.11601857785382, 50.920850446211496], "type": "Point"}, "properties": {"ADDRESS": "2511 Fish Creek Blvd", "BOARD": "The Calgary School Division", "GRADES": "Unknown", "Latitude": "50.920850446211496", "Longitude": "-114.11601857785382", "NAME": "Dr. Freda Miller", "POSTAL_CODE": "T2Y0E8", "PROVINCIAL_CODE": "2280", "TYPE": "Public School"}, "type": "Feature"}, {"geometry": {"coordinates": [-114.17775072940658, 51.13452422241288], "type": "Point"}, "properties": {"ADDRESS": "375 Hawkstone Drive N.W.", "BOARD": "The Calgary Roman Catholic Separate School Division", "GRADES": "Elementary", "Latitude": "51.13452422241288", "Longitude": "-114.17775072940658", "NAME": "St. Maria Goretti Elementary", "POSTAL_CODE": "T3G3T7", "PROVINCIAL_CODE": "8556", "TYPE": "Separate School"}, "type": "Feature"}, {"geometry": {"coordinates": [-114.03827458672424, 50.92788261580273], "type": "Point"}, "properties": {"ADDRESS": "13825 Parkside Drive S.E.", "BOARD": "The Calgary Roman Catholic Separate School Division", "GRADES": "Elementary", "Latitude": "50.92788261580273", "Longitude": "-114.03827458672424", "NAME": "St. Philip", "POSTAL_CODE": "T2J5A8", "PROVINCIAL_CODE": "8724", "TYPE": "Separate School"}, "type": "Feature"}, {"geometry": {"coordinates": [-113.96481312102036, 51.04925682287008], "type": "Point"}, "properties": {"ADDRESS": "4807 Forego Avenue S.E.", "BOARD": "The Calgary School Division", "GRADES": "Elementary", "Latitude": "51.04925682287008", "Longitude": "-113.96481312102036", "NAME": "Keeler", "POSTAL_CODE": "T2A2C4", "PROVINCIAL_CODE": "9318", "TYPE": "Public School"}, "type": "Feature"}, {"geometry": {"coordinates": [-114.07013116580133, 51.112797441016106], "type": "Point"}, "properties": {"ADDRESS": "6620 - 4 Street N.W.", "BOARD": "The Calgary School Division", "GRADES": "Senior High", "Latitude": "51.112797441016106", "Longitude": "-114.07013116580133", "NAME": "John G Diefenbaker High", "POSTAL_CODE": "T2K1C2", "PROVINCIAL_CODE": "9860", "TYPE": "Public School"}, "type": "Feature"}, {"geometry": {"coordinates": [-114.15892905753779, 51.034861798599835], "type": "Point"}, "properties": {"ADDRESS": "4931 Grove Hill Road S.W.", "BOARD": "The Calgary School Division", "GRADES": "Elementary", "Latitude": "51.034861798599835", "Longitude": "-114.15892905753779", "NAME": "Glenmeadows", "POSTAL_CODE": "T3E4G4", "PROVINCIAL_CODE": "9123", "TYPE": "Public School"}, "type": "Feature"}, {"geometry": {"coordinates": [-113.9784098464004, 51.055338754642], "type": "Point"}, "properties": {"ADDRESS": "#92 116 3800 Memorial Dr NE", "BOARD": "The Calgary School Division", "GRADES": "Senior High", "Latitude": "51.055338754642", "Longitude": "-113.9784098464004", "NAME": "Discovering Choices 2", "POSTAL_CODE": "T2A2K2", "PROVINCIAL_CODE": "1161", "TYPE": "Public School"}, "type": "Feature"}, {"geometry": {"coordinates": [-114.078091154179, 50.947410359630354], "type": "Point"}, "properties": {"ADDRESS": "395 Canterbury Drive S.W.", "BOARD": "The Calgary School Division", "GRADES": "Elementary", "Latitude": "50.947410359630354", "Longitude": "-114.078091154179", "NAME": "Canyon Meadows", "POSTAL_CODE": "T2W1J1", "PROVINCIAL_CODE": "9355", "TYPE": "Public School"}, "type": "Feature"}, {"geometry": {"coordinates": [-114.04539562092779, 51.16474252576233], "type": "Point"}, "properties": {"ADDRESS": "12455 Coventry Hills Way, N.E.", "BOARD": "The Calgary Roman Catholic Separate School Division", "GRADES": "Elementary", "Latitude": "51.16474252576233", "Longitude": "-114.04539562092779", "NAME": "St. Clare", "POSTAL_CODE": "T3K5Z4", "PROVINCIAL_CODE": "1118", "TYPE": "Separate School"}, "type": "Feature"}, {"geometry": {"coordinates": [-114.10391753803674, 51.0720766329197], "type": "Point"}, "properties": {"ADDRESS": "2210 - 18 Street N.W.", "BOARD": "The Calgary School Division", "GRADES": "Elementary", "Latitude": "51.0720766329197", "Longitude": "-114.10391753803674", "NAME": "Capitol Hill", "POSTAL_CODE": "T2M3T4", "PROVINCIAL_CODE": "9209", "TYPE": "Public School"}, "type": "Feature"}, {"geometry": {"coordinates": [-114.11503864070598, 51.03013270988322], "type": "Point"}, "properties": {"ADDRESS": "2701 - 22 Street S.W. c/o Richmond Elementary Schoo", "BOARD": "The Calgary School Division", "GRADES": "Elementary", "Latitude": "51.03013270988322", "Longitude": "-114.11503864070598", "NAME": "Richmond", "POSTAL_CODE": "T2T5G5", "PROVINCIAL_CODE": "9100", "TYPE": "Public School"}, "type": "Feature"}, {"geometry": {"coordinates": [-114.13601610820098, 51.09636485434405], "type": "Point"}, "properties": {"ADDRESS": "1484 Northmount Drive N.W.", "BOARD": "The Calgary School Division", "GRADES": "Elementary", "Latitude": "51.09636485434405", "Longitude": "-114.13601610820098", "NAME": "Captain John Palliser", "POSTAL_CODE": "T2L0G6", "PROVINCIAL_CODE": "9210", "TYPE": "Public School"}, "type": "Feature"}, {"geometry": {"coordinates": [-114.13069924396372, 50.997262984147994], "type": "Point"}, "properties": {"ADDRESS": "3304 - 63 Avenue S.W.", "BOARD": "The Calgary School Division", "GRADES": "Junior High", "Latitude": "50.997262984147994", "Longitude": "-114.13069924396372", "NAME": "Bishop Pinkham", "POSTAL_CODE": "T3E5K1", "PROVINCIAL_CODE": "9645", "TYPE": "Public School"}, "type": "Feature"}, {"geometry": {"coordinates": [-114.0514136639579, 51.16518040401562], "type": "Point"}, "properties": {"ADDRESS": "12350 Coventry Hills Way NE", "BOARD": "The Calgary School Division", "GRADES": "Elementary", "Latitude": "51.16518040401562", "Longitude": "-114.0514136639579", "NAME": "Coventry Hills", "POSTAL_CODE": "T3K5S9", "PROVINCIAL_CODE": "1038", "TYPE": "Public School"}, "type": "Feature"}, {"geometry": {"coordinates": [-113.98324473162776, 51.04738091995836], "type": "Point"}, "properties": {"ADDRESS": "3615 Radcliffe Drive S.E.", "BOARD": "The Calgary Roman Catholic Separate School Division", "GRADES": "Senior High", "Latitude": "51.04738091995836", "Longitude": "-113.98324473162776", "NAME": "Father Lacombe", "POSTAL_CODE": "T2A6B4", "PROVINCIAL_CODE": "8903", "TYPE": "Separate School"}, "type": "Feature"}, {"geometry": {"coordinates": [-114.08212752491288, 51.04636129977132], "type": "Point"}, "properties": {"ADDRESS": "", "BOARD": "", "GRADES": "", "Latitude": "51.04636129977132", "Longitude": "-114.08212752491288", "NAME": "University of Calgary - Downtown Campus", "POSTAL_CODE": "T2P1H9", "PROVINCIAL_CODE": "", "TYPE": "Post Secondary"}, "type": "Feature"}, {"geometry": {"coordinates": [-113.97007322043322, 50.910993656345894], "type": "Point"}, "properties": {"ADDRESS": "25 McKenzie Towne Dr. SE", "BOARD": "The Calgary School Division", "GRADES": "Elementary/Junior High", "Latitude": "50.910993656345894", "Longitude": "-113.97007322043322", "NAME": "McKenzie Highlands", "POSTAL_CODE": "T2Z4B7", "PROVINCIAL_CODE": "2055", "TYPE": "Public School"}, "type": "Feature"}, {"geometry": {"coordinates": [-114.19392208231754, 51.036894107397956], "type": "Point"}, "properties": {"ADDRESS": "7375 - 17 Avenue SW", "BOARD": "Rundle College Society", "GRADES": "Junior High", "Latitude": "51.036894107397956", "Longitude": "-114.19392208231754", "NAME": "Rundle College Junior High", "POSTAL_CODE": "T3H3W5", "PROVINCIAL_CODE": "5002", "TYPE": "Private School"}, "type": "Feature"}, {"geometry": {"coordinates": [-114.20025100350331, 51.093175259870236], "type": "Point"}, "properties": {"ADDRESS": "4627 - 77 Street N.W.", "BOARD": "The Calgary School Division", "GRADES": "Senior High", "Latitude": "51.093175259870236", "Longitude": "-114.20025100350331", "NAME": "Bowness High", "POSTAL_CODE": "T3B2N6", "PROVINCIAL_CODE": "9847", "TYPE": "Public School"}, "type": "Feature"}, {"geometry": {"coordinates": [-114.18905159556309, 51.087529168398795], "type": "Point"}, "properties": {"ADDRESS": "3915 - 69 Street N.W.", "BOARD": "The Calgary School Division", "GRADES": "Elementary/Junior High", "Latitude": "51.087529168398795", "Longitude": "-114.18905159556309", "NAME": "Thomas B Riley", "POSTAL_CODE": "T3B2J9", "PROVINCIAL_CODE": "9611", "TYPE": "Public School"}, "type": "Feature"}, {"geometry": {"coordinates": [-114.01850205309456, 50.9721562403216], "type": "Point"}, "properties": {"ADDRESS": "65 Rivervalley Drive S.E.", "BOARD": "The Calgary School Division", "GRADES": "Elementary", "Latitude": "50.9721562403216", "Longitude": "-114.01850205309456", "NAME": "Riverbend", "POSTAL_CODE": "T2C3Z7", "PROVINCIAL_CODE": "9386", "TYPE": "Public School"}, "type": "Feature"}, {"geometry": {"coordinates": [-113.9473996997224, 51.05701938727849], "type": "Point"}, "properties": {"ADDRESS": "5958 - 4 Avenue N.E.", "BOARD": "The Calgary School Division", "GRADES": "Elementary", "Latitude": "51.05701938727849", "Longitude": "-113.9473996997224", "NAME": "Roland Michener", "POSTAL_CODE": "T2A4B1", "PROVINCIAL_CODE": "9250", "TYPE": "Public School"}, "type": "Feature"}, {"geometry": {"coordinates": [-114.13343743178538, 50.94295223776885], "type": "Point"}, "properties": {"ADDRESS": "730 Woodbine Boulevard S.W.", "BOARD": "The Calgary Roman Catholic Separate School Division", "GRADES": "Elementary", "Latitude": "50.94295223776885", "Longitude": "-114.13343743178538", "NAME": "St. Jude", "POSTAL_CODE": "T2W4W4", "PROVINCIAL_CODE": "8546", "TYPE": "Separate School"}, "type": "Feature"}, {"geometry": {"coordinates": [-114.04234128576839, 50.94306370755293], "type": "Point"}, "properties": {"ADDRESS": "927 Lake Sylvan Drive S.E.", "BOARD": "The Calgary Roman Catholic Separate School Division", "GRADES": "Elementary", "Latitude": "50.94306370755293", "Longitude": "-114.04234128576839", "NAME": "St. Boniface Elementary", "POSTAL_CODE": "T2J2P8", "PROVINCIAL_CODE": "8532", "TYPE": "Separate School"}, "type": "Feature"}, {"geometry": {"coordinates": [-114.06583403972905, 51.157659409280406], "type": "Point"}, "properties": {"ADDRESS": "11900 Country Village Link NE", "BOARD": "The Calgary Roman Catholic Separate School Division", "GRADES": "Senior High", "Latitude": "51.157659409280406", "Longitude": "-114.06583403972905", "NAME": "Notre Dame High", "POSTAL_CODE": "T3K6E4", "PROVINCIAL_CODE": "1275", "TYPE": "Separate School"}, "type": "Feature"}, {"geometry": {"coordinates": [-114.11448312772814, 51.01764277053325], "type": "Point"}, "properties": {"ADDRESS": "4099 Garrison Blvd. S.W.", "BOARD": "Lycee Louis Pasteur Society", "GRADES": "Elementary/Junior High/Senior High", "Latitude": "51.01764277053325", "Longitude": "-114.11448312772814", "NAME": "Lycee Louis Pasteur", "POSTAL_CODE": "T2T6G2", "PROVINCIAL_CODE": "9919", "TYPE": "Private School"}, "type": "Feature"}, {"geometry": {"coordinates": [-114.0923733016467, 51.077871214649115], "type": "Point"}, "properties": {"ADDRESS": "19 Rosevale Drive N.W.", "BOARD": "The Calgary School Division", "GRADES": "Elementary", "Latitude": "51.077871214649115", "Longitude": "-114.0923733016467", "NAME": "Rosemont", "POSTAL_CODE": "T2K1N6", "PROVINCIAL_CODE": "9231", "TYPE": "Public School"}, "type": "Feature"}, {"geometry": {"coordinates": [-114.11230037386002, 50.91144483804469], "type": "Point"}, "properties": {"ADDRESS": "1100 Everridge Drive S.W.", "BOARD": "The Calgary School Division", "GRADES": "Elementary/Junior High", "Latitude": "50.91144483804469", "Longitude": "-114.11230037386002", "NAME": "Marshall Springs", "POSTAL_CODE": "T2Y4X5", "PROVINCIAL_CODE": "2069", "TYPE": "Public School"}, "type": "Feature"}, {"geometry": {"coordinates": [-114.09391017234952, 51.03472234343416], "type": "Point"}, "properties": {"ADDRESS": "2234 - 14 Street S.W.", "BOARD": "The Calgary School Division", "GRADES": "Junior High", "Latitude": "51.03472234343416", "Longitude": "-114.09391017234952", "NAME": "Mount Royal", "POSTAL_CODE": "T2T3T3", "PROVINCIAL_CODE": "9639", "TYPE": "Public School"}, "type": "Feature"}, {"geometry": {"coordinates": [-113.9556832273144, 51.13066963155768], "type": "Point"}, "properties": {"ADDRESS": "148 Saddletree Close NE", "BOARD": "The Calgary School Division", "GRADES": "Elementary/Junior High", "Latitude": "51.13066963155768", "Longitude": "-113.9556832273144", "NAME": "Peter Lougheed", "POSTAL_CODE": "T3J5J1", "PROVINCIAL_CODE": "2068", "TYPE": "Public School"}, "type": "Feature"}, {"geometry": {"coordinates": [-114.08405552840081, 51.07089706824776], "type": "Point"}, "properties": {"ADDRESS": "2108 - 10 Street N.W.", "BOARD": "The Calgary School Division", "GRADES": "Elementary", "Latitude": "51.07089706824776", "Longitude": "-114.08405552840081", "NAME": "King George", "POSTAL_CODE": "T2M3M4", "PROVINCIAL_CODE": "9608", "TYPE": "Public School"}, "type": "Feature"}, {"geometry": {"coordinates": [-114.0825466024522, 50.95898072431419], "type": "Point"}, "properties": {"ADDRESS": "898 Sylvester Cres. SW", "BOARD": "Foundations for the Future Charter Academy Charter School Society", "GRADES": "Elementary", "Latitude": "50.95898072431419", "Longitude": "-114.0825466024522", "NAME": "Southwest Elementary Campus", "POSTAL_CODE": "T2W0R7", "PROVINCIAL_CODE": "1352", "TYPE": "Charter"}, "type": "Feature"}, {"geometry": {"coordinates": [-114.12722864308043, 50.996129562407425], "type": "Point"}, "properties": {"ADDRESS": "3031 Lindsay Drive S.W.", "BOARD": "The Calgary School Division", "GRADES": "Elementary", "Latitude": "50.996129562407425", "Longitude": "-114.12722864308043", "NAME": "Jennie Elliott", "POSTAL_CODE": "T3E6A9", "PROVINCIAL_CODE": "9103", "TYPE": "Public School"}, "type": "Feature"}, {"geometry": {"coordinates": [-114.05600565954606, 50.901943699866905], "type": "Point"}, "properties": {"ADDRESS": "2050 - 21 Street N.E.", "BOARD": "Renfrew Educational Services Society", "GRADES": "Elementary", "Latitude": "50.901943699866905", "Longitude": "-114.05600565954606", "NAME": "Renfrew Thomas W. Buchanan Centre", "POSTAL_CODE": "T2X3V4", "PROVINCIAL_CODE": "250", "TYPE": "Private School"}, "type": "Feature"}, {"geometry": {"coordinates": [-114.00919782029995, 50.990390881488004], "type": "Point"}, "properties": {"ADDRESS": "55 Lynndale Crescent S.E.", "BOARD": "The Calgary Roman Catholic Separate School Division", "GRADES": "Elementary", "Latitude": "50.990390881488004", "Longitude": "-114.00919782029995", "NAME": "St. Bernadette", "POSTAL_CODE": "T2C0T8", "PROVINCIAL_CODE": "8709", "TYPE": "Separate School"}, "type": "Feature"}, {"geometry": {"coordinates": [-114.05945001776159, 50.983985560089515], "type": "Point"}, "properties": {"ADDRESS": "7840 Fairmount Drive S.E.", "BOARD": "The Calgary School Division", "GRADES": "Elementary/Junior High", "Latitude": "50.983985560089515", "Longitude": "-114.05945001776159", "NAME": "Fairview", "POSTAL_CODE": "T2H0Y1", "PROVINCIAL_CODE": "9633", "TYPE": "Public School"}, "type": "Feature"}, {"geometry": {"coordinates": [-114.05795555640731, 50.983858361503565], "type": "Point"}, "properties": {"ADDRESS": "47 Fyffe Road S.E.", "BOARD": "The Calgary School Division", "GRADES": "Elementary", "Latitude": "50.983858361503565", "Longitude": "-114.05795555640731", "NAME": "Le Roi Daniels", "POSTAL_CODE": "T2H1B9", "PROVINCIAL_CODE": "9320", "TYPE": "Public School"}, "type": "Feature"}, {"geometry": {"coordinates": [-114.10696961770047, 50.93893519258322], "type": "Point"}, "properties": {"ADDRESS": "88 Woodgreen Drive S.W.", "BOARD": "The Calgary School Division", "GRADES": "Elementary", "Latitude": "50.93893519258322", "Longitude": "-114.10696961770047", "NAME": "Woodlands", "POSTAL_CODE": "T2W4W9", "PROVINCIAL_CODE": "9371", "TYPE": "Public School"}, "type": "Feature"}, {"geometry": {"coordinates": [-114.19392208231754, 51.036894107397956], "type": "Point"}, "properties": {"ADDRESS": "7375 - 17 Avenue SW", "BOARD": "Rundle College Society", "GRADES": "Senior High", "Latitude": "51.036894107397956", "Longitude": "-114.19392208231754", "NAME": "Rundle College Senior High", "POSTAL_CODE": "T3H3W5", "PROVINCIAL_CODE": "9952", "TYPE": "Private School"}, "type": "Feature"}, {"geometry": {"coordinates": [-114.06781436403641, 51.036769787972446], "type": "Point"}, "properties": {"ADDRESS": "235 - 18 Avenue S.W.", "BOARD": "The Calgary Roman Catholic Separate School Division", "GRADES": "Elementary/Junior High", "Latitude": "51.036769787972446", "Longitude": "-114.06781436403641", "NAME": "St. Monica", "POSTAL_CODE": "T2S0C2", "PROVINCIAL_CODE": "8530", "TYPE": "Separate School"}, "type": "Feature"}, {"geometry": {"coordinates": [-114.06708119390154, 51.032433490966454], "type": "Point"}, "properties": {"ADDRESS": "", "BOARD": "", "GRADES": "", "Latitude": "51.032433490966454", "Longitude": "-114.06708119390154", "NAME": "Mount Royal University - Holy Cross Campus", "POSTAL_CODE": "T2S3C3", "PROVINCIAL_CODE": "", "TYPE": "Post Secondary"}, "type": "Feature"}, {"geometry": {"coordinates": [-114.11667287049605, 51.15023383387541], "type": "Point"}, "properties": {"ADDRESS": "10951 Hidden Valley Dr NW", "BOARD": "The Calgary School Division", "GRADES": "Elementary/Junior High", "Latitude": "51.15023383387541", "Longitude": "-114.11667287049605", "NAME": "Valley Creek", "POSTAL_CODE": "T3A6J2", "PROVINCIAL_CODE": "1098", "TYPE": "Public School"}, "type": "Feature"}, {"geometry": {"coordinates": [-114.07051630306398, 51.08653214680896], "type": "Point"}, "properties": {"ADDRESS": "4004 - 4 Street N.W.", "BOARD": "The Calgary School Division", "GRADES": "Senior High", "Latitude": "51.08653214680896", "Longitude": "-114.07051630306398", "NAME": "James Fowler High", "POSTAL_CODE": "T2K1A1", "PROVINCIAL_CODE": "9825", "TYPE": "Public School"}, "type": "Feature"}, {"geometry": {"coordinates": [-113.97597027648685, 50.887836920058064], "type": "Point"}, "properties": {"ADDRESS": "333 Cranston Way SE", "BOARD": "The Calgary Roman Catholic Separate School Division", "GRADES": "Elementary/Junior High", "Latitude": "50.887836920058064", "Longitude": "-113.97597027648685", "NAME": "Christ the King Catholic", "POSTAL_CODE": "T3M1K6", "PROVINCIAL_CODE": "1484", "TYPE": "Separate School"}, "type": "Feature"}, {"geometry": {"coordinates": [-114.08771017487246, 50.91848505964268], "type": "Point"}, "properties": {"ADDRESS": "14826 Millrise Hill S.W.", "BOARD": "The Calgary Roman Catholic Separate School Division", "GRADES": "Elementary/Junior High", "Latitude": "50.91848505964268", "Longitude": "-114.08771017487246", "NAME": "Our Lady of Peace Elementary Junior High", "POSTAL_CODE": "T2Y2B4", "PROVINCIAL_CODE": "8732", "TYPE": "Separate School"}, "type": "Feature"}, {"geometry": {"coordinates": [-114.22409259134834, 51.14936065327492], "type": "Point"}, "properties": {"ADDRESS": "9850 Royal Oak Drive Nw", "BOARD": "The Calgary School Division", "GRADES": "Elementary/Junior High", "Latitude": "51.14936065327492", "Longitude": "-114.22409259134834", "NAME": "William D. Pratt", "POSTAL_CODE": "T3G0A4", "PROVINCIAL_CODE": "2067", "TYPE": "Public School"}, "type": "Feature"}, {"geometry": {"coordinates": [-113.98930608729215, 51.045734772451205], "type": "Point"}, "properties": {"ADDRESS": "819 - 32 Street S.E.", "BOARD": "The Calgary School Division", "GRADES": "Elementary/Junior High", "Latitude": "51.045734772451205", "Longitude": "-113.98930608729215", "NAME": "Sir Wilfrid Laurier", "POSTAL_CODE": "T2A0Y9", "PROVINCIAL_CODE": "9648", "TYPE": "Public School"}, "type": "Feature"}, {"geometry": {"coordinates": [-114.10995997464397, 51.00965945971756], "type": "Point"}, "properties": {"ADDRESS": "5003 - 20 Street S.W.", "BOARD": "The Calgary School Division", "GRADES": "Senior High", "Latitude": "51.00965945971756", "Longitude": "-114.10995997464397", "NAME": "Alternative High", "POSTAL_CODE": "T2T5A5", "PROVINCIAL_CODE": "9863", "TYPE": "Public School"}, "type": "Feature"}, {"geometry": {"coordinates": [-114.0821970414466, 51.01957747339584], "type": "Point"}, "properties": {"ADDRESS": "721 - 38 Avenue S.W.", "BOARD": "The Calgary School Division", "GRADES": "Elementary", "Latitude": "51.01957747339584", "Longitude": "-114.0821970414466", "NAME": "Elbow Park", "POSTAL_CODE": "T2T2H8", "PROVINCIAL_CODE": "9119", "TYPE": "Public School"}, "type": "Feature"}, {"geometry": {"coordinates": [-114.1513784650062, 51.10652693420392], "type": "Point"}, "properties": {"ADDRESS": "4440 Dallyn Street NW", "BOARD": "The Calgary School Division", "GRADES": "Elementary", "Latitude": "51.10652693420392", "Longitude": "-114.1513784650062", "NAME": "Dalhousie", "POSTAL_CODE": "T3A1K3", "PROVINCIAL_CODE": "9240", "TYPE": "Public School"}, "type": "Feature"}, {"geometry": {"coordinates": [-114.08008600922928, 50.90936931399449], "type": "Point"}, "properties": {"ADDRESS": "224 Shawnessy Drive S.W.", "BOARD": "The Calgary School Division", "GRADES": "Elementary", "Latitude": "50.90936931399449", "Longitude": "-114.08008600922928", "NAME": "Janet Johnstone", "POSTAL_CODE": "T2Y1M1", "PROVINCIAL_CODE": "9270", "TYPE": "Public School"}, "type": "Feature"}, {"geometry": {"coordinates": [-114.08867875638369, 51.162450928603484], "type": "Point"}, "properties": {"ADDRESS": "405 Panatella Blvd NW", "BOARD": "The Calgary School Division", "GRADES": "Elementary/Junior High", "Latitude": "51.162450928603484", "Longitude": "-114.08867875638369", "NAME": "Captain Nichola Goddard", "POSTAL_CODE": "T3K0P3", "PROVINCIAL_CODE": "1676", "TYPE": "Public School"}, "type": "Feature"}, {"geometry": {"coordinates": [-113.94510398940886, 51.10465691103333], "type": "Point"}, "properties": {"ADDRESS": "139 Falshire Drive N.E.", "BOARD": "The Calgary School Division", "GRADES": "Junior High", "Latitude": "51.10465691103333", "Longitude": "-113.94510398940886", "NAME": "Terry Fox", "POSTAL_CODE": "T3J1P7", "PROVINCIAL_CODE": "9689", "TYPE": "Public School"}, "type": "Feature"}, {"geometry": {"coordinates": [-113.99222806283835, 51.02192021628255], "type": "Point"}, "properties": {"ADDRESS": "3619 - 28 Street S.E.", "BOARD": "The Calgary Roman Catholic Separate School Division", "GRADES": "Elementary", "Latitude": "51.02192021628255", "Longitude": "-113.99222806283835", "NAME": "St. Damien", "POSTAL_CODE": "T2B2J1", "PROVINCIAL_CODE": "8550", "TYPE": "Separate School"}, "type": "Feature"}, {"geometry": {"coordinates": [-113.93687964231422, 51.136882575151375], "type": "Point"}, "properties": {"ADDRESS": "368 Saddlecrest Blvd N.E.", "BOARD": "The Calgary School Division", "GRADES": "Elementary", "Latitude": "51.136882575151375", "Longitude": "-113.93687964231422", "NAME": "Saddle Ridge", "POSTAL_CODE": "T3J5L6", "PROVINCIAL_CODE": "1520", "TYPE": "Public School"}, "type": "Feature"}, {"geometry": {"coordinates": [-114.08284033402592, 51.07207021510708], "type": "Point"}, "properties": {"ADDRESS": "#206, 315 10 avenue  S.E.", "BOARD": "The Calgary School Division", "GRADES": "Senior High", "Latitude": "51.07207021510708", "Longitude": "-114.08284033402592", "NAME": "Project Trust", "POSTAL_CODE": "T2M4P6", "PROVINCIAL_CODE": "9599", "TYPE": "Public School"}, "type": "Feature"}, {"geometry": {"coordinates": [-113.96816444284232, 51.08776690368872], "type": "Point"}, "properties": {"ADDRESS": "171 Whitehorn Road N.E.", "BOARD": "The Calgary School Division", "GRADES": "Elementary", "Latitude": "51.08776690368872", "Longitude": "-113.96816444284232", "NAME": "Colonel J. Fred Scott", "POSTAL_CODE": "T1Y3C4", "PROVINCIAL_CODE": "9348", "TYPE": "Public School"}, "type": "Feature"}, {"geometry": {"coordinates": [-114.20190323510076, 51.08942952683853], "type": "Point"}, "properties": {"ADDRESS": "4110 - 79 Street NW", "BOARD": "The Calgary School Division", "GRADES": "Senior High", "Latitude": "51.08942952683853", "Longitude": "-114.20190323510076", "NAME": "Start Outreach", "POSTAL_CODE": "T3B5C2", "PROVINCIAL_CODE": "1232", "TYPE": "Public School"}, "type": "Feature"}, {"geometry": {"coordinates": [-114.13327561326304, 51.06980820007824], "type": "Point"}, "properties": {"ADDRESS": "3035 Utah Drive N.W.", "BOARD": "The Calgary School Division", "GRADES": "Elementary", "Latitude": "51.06980820007824", "Longitude": "-114.13327561326304", "NAME": "University", "POSTAL_CODE": "T2N3Z9", "PROVINCIAL_CODE": "9237", "TYPE": "Public School"}, "type": "Feature"}, {"geometry": {"coordinates": [-114.00782569956368, 51.0502641577022], "type": "Point"}, "properties": {"ADDRESS": "320 19 Street S.E.", "BOARD": "Phoenix Education Foundation", "GRADES": "Elementary/Junior High/Senior High", "Latitude": "51.0502641577022", "Longitude": "-114.00782569956368", "NAME": "Phoenix Education Foundation", "POSTAL_CODE": "T2E6J6", "PROVINCIAL_CODE": "1264", "TYPE": "Private School"}, "type": "Feature"}, {"geometry": {"coordinates": [-114.1190387515867, 51.01928658422201], "type": "Point"}, "properties": {"ADDRESS": "B1 #201 2451 Dieppe Avenue S.W.", "BOARD": "Banbury Crossroads School", "GRADES": "Elementary/Junior High/Senior High", "Latitude": "51.01928658422201", "Longitude": "-114.1190387515867", "NAME": "Banbury Crossroads", "POSTAL_CODE": "T3E7K1", "PROVINCIAL_CODE": "9935", "TYPE": "Private School"}, "type": "Feature"}, {"geometry": {"coordinates": [-114.08847911062506, 50.96887003157332], "type": "Point"}, "properties": {"ADDRESS": "1204 - 96 Avenue S.W.", "BOARD": "The Calgary Roman Catholic Separate School Division", "GRADES": "Elementary", "Latitude": "50.96887003157332", "Longitude": "-114.08847911062506", "NAME": "St. Gerard Bilingual", "POSTAL_CODE": "T2V0Y1", "PROVINCIAL_CODE": "8517", "TYPE": "Separate School"}, "type": "Feature"}, {"geometry": {"coordinates": [-114.05335484657195, 50.90610968295476], "type": "Point"}, "properties": {"ADDRESS": "55 Sun Valley Boulevard, S.E.", "BOARD": "The Calgary School Division", "GRADES": "Senior High", "Latitude": "50.90610968295476", "Longitude": "-114.05335484657195", "NAME": "Centennial High", "POSTAL_CODE": "T2X3W7", "PROVINCIAL_CODE": "1224", "TYPE": "Public School"}, "type": "Feature"}, {"geometry": {"coordinates": [-114.06401757166121, 51.03661432292529], "type": "Point"}, "properties": {"ADDRESS": "111 - 18 Avenue S.W.", "BOARD": "The Calgary Roman Catholic Separate School Division", "GRADES": "Senior High", "Latitude": "51.03661432292529", "Longitude": "-114.06401757166121", "NAME": "St. Mary's High", "POSTAL_CODE": "T2S0B8", "PROVINCIAL_CODE": "8904", "TYPE": "Separate School"}, "type": "Feature"}, {"geometry": {"coordinates": [-114.05517470231423, 50.91504020740219], "type": "Point"}, "properties": {"ADDRESS": "55 Midpark Rise S.E.", "BOARD": "The Calgary School Division", "GRADES": "Elementary", "Latitude": "50.91504020740219", "Longitude": "-114.05517470231423", "NAME": "Midnapore", "POSTAL_CODE": "T2X1L7", "PROVINCIAL_CODE": "9363", "TYPE": "Public School"}, "type": "Feature"}, {"geometry": {"coordinates": [-114.04195879903295, 50.96189052183626], "type": "Point"}, "properties": {"ADDRESS": "10203 Maplemont Road S.E.", "BOARD": "The Calgary School Division", "GRADES": "Elementary", "Latitude": "50.96189052183626", "Longitude": "-114.04195879903295", "NAME": "Maple Ridge", "POSTAL_CODE": "T2J1W3", "PROVINCIAL_CODE": "9321", "TYPE": "Public School"}, "type": "Feature"}, {"geometry": {"coordinates": [-113.99212831476665, 51.04057719608583], "type": "Point"}, "properties": {"ADDRESS": "1420 - 28 Street S.E.", "BOARD": "The Calgary Roman Catholic Separate School Division", "GRADES": "Junior High", "Latitude": "51.04057719608583", "Longitude": "-113.99212831476665", "NAME": "Bishop Kidd", "POSTAL_CODE": "T2A0Y8", "PROVINCIAL_CODE": "8702", "TYPE": "Separate School"}, "type": "Feature"}, {"geometry": {"coordinates": [-114.10530480453536, 50.96365476745737], "type": "Point"}, "properties": {"ADDRESS": "10020 - 19 Street S.W.", "BOARD": "The Calgary School Division", "GRADES": "Junior High", "Latitude": "50.96365476745737", "Longitude": "-114.10530480453536", "NAME": "John Ware", "POSTAL_CODE": "T2V1R2", "PROVINCIAL_CODE": "9603", "TYPE": "Public School"}, "type": "Feature"}, {"geometry": {"coordinates": [-114.06068732190757, 50.95779615801264], "type": "Point"}, "properties": {"ADDRESS": "343 Willow Park Drive S.E.", "BOARD": "The Calgary School Division", "GRADES": "Elementary/Junior High", "Latitude": "50.95779615801264", "Longitude": "-114.06068732190757", "NAME": "Willow Park", "POSTAL_CODE": "T2J0K7", "PROVINCIAL_CODE": "9331", "TYPE": "Public School"}, "type": "Feature"}, {"geometry": {"coordinates": [-114.1209739609144, 51.01937604175609], "type": "Point"}, "properties": {"ADDRESS": "2521 Dieppe Avenue SW", "BOARD": "Clear Water Academy Foundation", "GRADES": "Elementary/Junior High/Senior High", "Latitude": "51.01937604175609", "Longitude": "-114.1209739609144", "NAME": "Clear Water Academy", "POSTAL_CODE": "T3E7J9", "PROVINCIAL_CODE": "7976", "TYPE": "Private School"}, "type": "Feature"}, {"geometry": {"coordinates": [-114.13251279283388, 51.07104759417764], "type": "Point"}, "properties": {"ADDRESS": "2215 Uxbridge Dr. N.W.", "BOARD": "Westmount Charter School Society", "GRADES": "Elementary/Junior High/Senior High", "Latitude": "51.07104759417764", "Longitude": "-114.13251279283388", "NAME": "Westmount Mid/High", "POSTAL_CODE": "T2N4Y3", "PROVINCIAL_CODE": "6002", "TYPE": "Charter"}, "type": "Feature"}, {"geometry": {"coordinates": [-113.9622788812109, 51.075800571837206], "type": "Point"}, "properties": {"ADDRESS": "2419 50 Street NE", "BOARD": "The Calgary Roman Catholic Separate School Division", "GRADES": "Elementary/Junior High", "Latitude": "51.075800571837206", "Longitude": "-113.9622788812109", "NAME": "St. Rose of Lima Junior High", "POSTAL_CODE": "T1Y1Z5", "PROVINCIAL_CODE": "8722", "TYPE": "Separate School"}, "type": "Feature"}, {"geometry": {"coordinates": [-114.02912703464114, 50.88484305777542], "type": "Point"}, "properties": {"ADDRESS": "65 Chaparal Drive SE", "BOARD": "The Calgary Roman Catholic Separate School Division", "GRADES": "Elementary", "Latitude": "50.88484305777542", "Longitude": "-114.02912703464114", "NAME": "St. Sebastian Elementary", "POSTAL_CODE": "T2X0E6", "PROVINCIAL_CODE": "1339", "TYPE": "Separate School"}, "type": "Feature"}, {"geometry": {"coordinates": [-114.08568823295765, 50.880931820329465], "type": "Point"}, "properties": {"ADDRESS": "483 Silverado Blvd. SW", "BOARD": "The Calgary School Division", "GRADES": "Elementary", "Latitude": "50.880931820329465", "Longitude": "-114.08568823295765", "NAME": "Ron Southern", "POSTAL_CODE": "T2X2E2", "PROVINCIAL_CODE": "2146", "TYPE": "Public School"}, "type": "Feature"}, {"geometry": {"coordinates": [-114.04692651072814, 51.15761631065638], "type": "Point"}, "properties": {"ADDRESS": "711 Coventry Drive NE", "BOARD": "The Calgary School Division", "GRADES": "Unknown", "Latitude": "51.15761631065638", "Longitude": "-114.04692651072814", "NAME": "Northern Lights", "POSTAL_CODE": "", "PROVINCIAL_CODE": "2282", "TYPE": "Public School"}, "type": "Feature"}, {"geometry": {"coordinates": [-114.09557493147044, 51.00763587229926], "type": "Point"}, "properties": {"ADDRESS": "5139 - 14 Street S.W.", "BOARD": "The Calgary School Division", "GRADES": "Elementary/Junior High", "Latitude": "51.00763587229926", "Longitude": "-114.09557493147044", "NAME": "Emily Follensbee", "POSTAL_CODE": "T2T3W5", "PROVINCIAL_CODE": "9036", "TYPE": "Public School"}, "type": "Feature"}, {"geometry": {"coordinates": [-113.94553473384163, 51.08541163416477], "type": "Point"}, "properties": {"ADDRESS": "6110 Temple Drive N.E.", "BOARD": "The Calgary Roman Catholic Separate School Division", "GRADES": "Elementary", "Latitude": "51.08541163416477", "Longitude": "-113.94553473384163", "NAME": "St. Thomas More", "POSTAL_CODE": "T1Y5V4", "PROVINCIAL_CODE": "8544", "TYPE": "Separate School"}, "type": "Feature"}, {"geometry": {"coordinates": [-114.1190387515867, 51.01928658422201], "type": "Point"}, "properties": {"ADDRESS": "B1 - 2451 Dieppe Avenue S.W. Box 100", "BOARD": "Access International College (Calgary) Incorporated", "GRADES": "Senior High", "Latitude": "51.01928658422201", "Longitude": "-114.1190387515867", "NAME": "Access Academy", "POSTAL_CODE": "T3E7K1", "PROVINCIAL_CODE": "1271", "TYPE": "Private School"}, "type": "Feature"}, {"geometry": {"coordinates": [-114.12217065198476, 51.018473585992034], "type": "Point"}, "properties": {"ADDRESS": "2521 Dieppe Ave SW", "BOARD": "New Heights School and Learning Services Society", "GRADES": "Elementary/Junior High/Senior High", "Latitude": "51.018473585992034", "Longitude": "-114.12217065198476", "NAME": "New Heights School and Learning Services", "POSTAL_CODE": "T3E7M1", "PROVINCIAL_CODE": "432", "TYPE": "Private School"}, "type": "Feature"}, {"geometry": {"coordinates": [-114.08797194873132, 50.94878736293795], "type": "Point"}, "properties": {"ADDRESS": "220 Canterbury Drive S.W.", "BOARD": "The Calgary School Division", "GRADES": "Senior High", "Latitude": "50.94878736293795", "Longitude": "-114.08797194873132", "NAME": "Dr. E. P. Scarlett High", "POSTAL_CODE": "T2W1H4", "PROVINCIAL_CODE": "9858", "TYPE": "Public School"}, "type": "Feature"}, {"geometry": {"coordinates": [-114.05041110280098, 50.96529608232206], "type": "Point"}, "properties": {"ADDRESS": "610 Agate Crescent S.E.", "BOARD": "The Calgary Roman Catholic Separate School Division", "GRADES": "Elementary", "Latitude": "50.96529608232206", "Longitude": "-114.05041110280098", "NAME": "St. Cecilia (Bilingual) Elementary", "POSTAL_CODE": "T2J0Z3", "PROVINCIAL_CODE": "8513", "TYPE": "Separate School"}, "type": "Feature"}, {"geometry": {"coordinates": [-114.06224040398533, 50.90932823045676], "type": "Point"}, "properties": {"ADDRESS": "#305, 295 Midpark Way SE", "BOARD": "The East Central Alberta Catholic Separate School Division", "GRADES": "Unknown", "Latitude": "50.90932823045676", "Longitude": "-114.06224040398533", "NAME": "Midpark Writing Centre", "POSTAL_CODE": "T2X2A8", "PROVINCIAL_CODE": "2279", "TYPE": "Separate School"}, "type": "Feature"}, {"geometry": {"coordinates": [-114.0328113894865, 50.90150513872721], "type": "Point"}, "properties": {"ADDRESS": "1039 Suncastle Drive S.E.", "BOARD": "The Calgary School Division", "GRADES": "Elementary", "Latitude": "50.90150513872721", "Longitude": "-114.0328113894865", "NAME": "Fish Creek", "POSTAL_CODE": "T2X2Z1", "PROVINCIAL_CODE": "9384", "TYPE": "Public School"}, "type": "Feature"}, {"geometry": {"coordinates": [-114.04881975336572, 51.05442192946914], "type": "Point"}, "properties": {"ADDRESS": "231 - 6 Street N.E.", "BOARD": "The Calgary Roman Catholic Separate School Division", "GRADES": "Elementary", "Latitude": "51.05442192946914", "Longitude": "-114.04881975336572", "NAME": "St. Angela Elementary", "POSTAL_CODE": "T2E3Y1", "PROVINCIAL_CODE": "8510", "TYPE": "Separate School"}, "type": "Feature"}, {"geometry": {"coordinates": [-114.11654589992118, 51.015302380710715], "type": "Point"}, "properties": {"ADDRESS": "4414 Crowchild Trail SW", "BOARD": "The Palliser School Division", "GRADES": "Junior High/Senior High", "Latitude": "51.015302380710715", "Longitude": "-114.11654589992118", "NAME": "Master's College", "POSTAL_CODE": "T2T5J4", "PROVINCIAL_CODE": "1562", "TYPE": "Public School"}, "type": "Feature"}, {"geometry": {"coordinates": [-114.13900360215796, 51.028271889718965], "type": "Point"}, "properties": {"ADDRESS": "3011 - 35 Street S.W.", "BOARD": "The Calgary Roman Catholic Separate School Division", "GRADES": "Elementary", "Latitude": "51.028271889718965", "Longitude": "-114.13900360215796", "NAME": "Holy Name (Bilingual)", "POSTAL_CODE": "T3E2Y7", "PROVINCIAL_CODE": "8504", "TYPE": "Separate School"}, "type": "Feature"}, {"geometry": {"coordinates": [-114.1139277191071, 51.00651691168754], "type": "Point"}, "properties": {"ADDRESS": "2336 53 Avenue S.W.", "BOARD": "The Calgary School Division", "GRADES": "Elementary/Junior High/Senior High", "Latitude": "51.00651691168754", "Longitude": "-114.1139277191071", "NAME": "CBe - Learn", "POSTAL_CODE": "T3E1L2", "PROVINCIAL_CODE": "1064", "TYPE": "Public School"}, "type": "Feature"}, {"geometry": {"coordinates": [-114.21832624014894, 51.0723493859737], "type": "Point"}, "properties": {"ADDRESS": "515 Cougar Ridge Drive S.W.", "BOARD": "Calgary Waldorf School Society", "GRADES": "Elementary/Junior High", "Latitude": "51.0723493859737", "Longitude": "-114.21832624014894", "NAME": "Calgary Waldorf", "POSTAL_CODE": "T3H5G9", "PROVINCIAL_CODE": "9949", "TYPE": "Private School"}, "type": "Feature"}, {"geometry": {"coordinates": [-114.22422827854751, 51.09609805273075], "type": "Point"}, "properties": {"ADDRESS": "805 37 ST NW", "BOARD": "The Calgary School Division", "GRADES": "Elementary/Junior High/Senior High", "Latitude": "51.09609805273075", "Longitude": "-114.22422827854751", "NAME": "Wood's Homes", "POSTAL_CODE": "T3B2B2", "PROVINCIAL_CODE": "9035", "TYPE": "Public School"}, "type": "Feature"}, {"geometry": {"coordinates": [-114.11301375569617, 50.96849530124367], "type": "Point"}, "properties": {"ADDRESS": "2315 Palliser Drive S.W.", "BOARD": "The Calgary School Division", "GRADES": "Elementary", "Latitude": "50.96849530124367", "Longitude": "-114.11301375569617", "NAME": "Nellie McClung", "POSTAL_CODE": "T2V3S4", "PROVINCIAL_CODE": "9333", "TYPE": "Public School"}, "type": "Feature"}, {"geometry": {"coordinates": [-114.08927241599774, 51.0645150986753], "type": "Point"}, "properties": {"ADDRESS": "", "BOARD": "", "GRADES": "", "Latitude": "51.0645150986753", "Longitude": "-114.08927241599774", "NAME": "SAIT - Main Campus", "POSTAL_CODE": "", "PROVINCIAL_CODE": "", "TYPE": "Post Secondary"}, "type": "Feature"}, {"geometry": {"coordinates": [-114.08697778927161, 50.9678895839828], "type": "Point"}, "properties": {"ADDRESS": "10 Hillgrove Crescent S.W.", "BOARD": "The Calgary School Division", "GRADES": "Elementary", "Latitude": "50.9678895839828", "Longitude": "-114.08697778927161", "NAME": "Eugene Coste", "POSTAL_CODE": "T2V3K7", "PROVINCIAL_CODE": "9311", "TYPE": "Public School"}, "type": "Feature"}, {"geometry": {"coordinates": [-114.05206189484613, 51.06962543685194], "type": "Point"}, "properties": {"ADDRESS": "2004 - 4 Street N.E.", "BOARD": "The Calgary School Division", "GRADES": "Elementary", "Latitude": "51.06962543685194", "Longitude": "-114.05206189484613", "NAME": "Mount View", "POSTAL_CODE": "T2E3T8", "PROVINCIAL_CODE": "9224", "TYPE": "Public School"}, "type": "Feature"}, {"geometry": {"coordinates": [-113.92825420850842, 51.11723275110432], "type": "Point"}, "properties": {"ADDRESS": "215 Taravista Way N.E.", "BOARD": "The Calgary School Division", "GRADES": "Elementary/Junior High", "Latitude": "51.11723275110432", "Longitude": "-113.92825420850842", "NAME": "Ted Harrison", "POSTAL_CODE": "T3J4L1", "PROVINCIAL_CODE": "1677", "TYPE": "Public School"}, "type": "Feature"}, {"geometry": {"coordinates": [-114.19082549567275, 51.10571020799481], "type": "Point"}, "properties": {"ADDRESS": "7235 Silvermead Road N.W.", "BOARD": "The Calgary School Division", "GRADES": "Elementary", "Latitude": "51.10571020799481", "Longitude": "-114.19082549567275", "NAME": "Silver Springs", "POSTAL_CODE": "T3B3V1", "PROVINCIAL_CODE": "9256", "TYPE": "Public School"}, "type": "Feature"}, {"geometry": {"coordinates": [-114.12852189420211, 50.95549347429258], "type": "Point"}, "properties": {"ADDRESS": "2990 Cedarbrae Drive S.W.", "BOARD": "The Calgary Roman Catholic Separate School Division", "GRADES": "Elementary/Junior High", "Latitude": "50.95549347429258", "Longitude": "-114.12852189420211", "NAME": "St. Cyril", "POSTAL_CODE": "T2W2N9", "PROVINCIAL_CODE": "8723", "TYPE": "Separate School"}, "type": "Feature"}, {"geometry": {"coordinates": [-114.14832373726934, 51.15988954389629], "type": "Point"}, "properties": {"ADDRESS": "999 Sherwood Blvd. NW", "BOARD": "The Calgary Roman Catholic Separate School Division", "GRADES": "Elementary/Junior High", "Latitude": "51.15988954389629", "Longitude": "-114.14832373726934", "NAME": "Blessed Marie-Rose", "POSTAL_CODE": "T3R1M9", "PROVINCIAL_CODE": "2195", "TYPE": "Separate School"}, "type": "Feature"}, {"geometry": {"coordinates": [-114.05392686139447, 50.96761061880766], "type": "Point"}, "properties": {"ADDRESS": "9603 - 5 Street S.E.", "BOARD": "The Calgary School Division", "GRADES": "Elementary", "Latitude": "50.96761061880766", "Longitude": "-114.05392686139447", "NAME": "Acadia", "POSTAL_CODE": "T2J1K4", "PROVINCIAL_CODE": "9300", "TYPE": "Public School"}, "type": "Feature"}, {"geometry": {"coordinates": [-114.21155915982997, 51.092716824105224], "type": "Point"}, "properties": {"ADDRESS": "4631 - 85 Street N.W.", "BOARD": "The Calgary School Division", "GRADES": "Elementary", "Latitude": "51.092716824105224", "Longitude": "-114.21155915982997", "NAME": "Belvedere Parkway", "POSTAL_CODE": "T3B2R8", "PROVINCIAL_CODE": "9110", "TYPE": "Public School"}, "type": "Feature"}, {"geometry": {"coordinates": [-113.93404761108852, 51.09955230311567], "type": "Point"}, "properties": {"ADDRESS": "4 Coral Springs Boulevard N.E", "BOARD": "The Calgary Roman Catholic Separate School Division", "GRADES": "Elementary", "Latitude": "51.09955230311567", "Longitude": "-113.93404761108852", "NAME": "Monsignor A. J. Hetherington Elementary", "POSTAL_CODE": "T3J3J3", "PROVINCIAL_CODE": "8557", "TYPE": "Separate School"}, "type": "Feature"}, {"geometry": {"coordinates": [-114.04764537501224, 51.066182816000925], "type": "Point"}, "properties": {"ADDRESS": "1610 - 6 Street N.E.", "BOARD": "The Calgary School Division", "GRADES": "Elementary/Junior High", "Latitude": "51.066182816000925", "Longitude": "-114.04764537501224", "NAME": "Colonel Macleod", "POSTAL_CODE": "T2E3Y9", "PROVINCIAL_CODE": "9620", "TYPE": "Public School"}, "type": "Feature"}, {"geometry": {"coordinates": [-114.11958995850408, 51.150253759187706], "type": "Point"}, "properties": {"ADDRESS": "10959 Hidden Valley Drive NW", "BOARD": "The Calgary School Division", "GRADES": "Elementary", "Latitude": "51.150253759187706", "Longitude": "-114.11958995850408", "NAME": "Hidden Valley", "POSTAL_CODE": "T3A6J2", "PROVINCIAL_CODE": "535", "TYPE": "Public School"}, "type": "Feature"}, {"geometry": {"coordinates": [-114.06456676845627, 50.89809184871791], "type": "Point"}, "properties": {"ADDRESS": "Suite 500 333 Shawville Boulevard S.E.", "BOARD": "The Calgary Roman Catholic Separate School Division", "GRADES": "Senior High", "Latitude": "50.89809184871791", "Longitude": "-114.06456676845627", "NAME": "Bishop O'Byrne High", "POSTAL_CODE": "T2Y4H3", "PROVINCIAL_CODE": "581", "TYPE": "Separate School"}, "type": "Feature"}, {"geometry": {"coordinates": [-114.03091536794537, 50.9018494706971], "type": "Point"}, "properties": {"ADDRESS": "660 Sunmills Drive S.E.", "BOARD": "The Calgary School Division", "GRADES": "Junior High", "Latitude": "50.9018494706971", "Longitude": "-114.03091536794537", "NAME": "Midsun", "POSTAL_CODE": "T2X3R5", "PROVINCIAL_CODE": "348", "TYPE": "Public School"}, "type": "Feature"}, {"geometry": {"coordinates": [-114.01825265681849, 50.93130069103458], "type": "Point"}, "properties": {"ADDRESS": "13615 Deer Ridge Drive S.E.", "BOARD": "The Calgary Roman Catholic Separate School Division", "GRADES": "Elementary/Junior High", "Latitude": "50.93130069103458", "Longitude": "-114.01825265681849", "NAME": "Don Bosco", "POSTAL_CODE": "T2J6S7", "PROVINCIAL_CODE": "8727", "TYPE": "Separate School"}, "type": "Feature"}, {"geometry": {"coordinates": [-114.1207914767149, 51.012693638631966], "type": "Point"}, "properties": {"ADDRESS": "4624 Richard Road S.W.", "BOARD": "The Calgary Roman Catholic Separate School Division", "GRADES": "Senior High", "Latitude": "51.012693638631966", "Longitude": "-114.1207914767149", "NAME": "Bishop Carroll High", "POSTAL_CODE": "T3E6L1", "PROVINCIAL_CODE": "8905", "TYPE": "Separate School"}, "type": "Feature"}, {"geometry": {"coordinates": [-114.23186704536128, 51.13911894947999], "type": "Point"}, "properties": {"ADDRESS": "450 Royal Oak Drive NW", "BOARD": "Calgary International Academy Ltd", "GRADES": "Unknown", "Latitude": "51.13911894947999", "Longitude": "-114.23186704536128", "NAME": "Calgary International Academy", "POSTAL_CODE": "T3G5J7", "PROVINCIAL_CODE": "2319", "TYPE": "Private School"}, "type": "Feature"}, {"geometry": {"coordinates": [-113.96803098305986, 50.895513663213784], "type": "Point"}, "properties": {"ADDRESS": "800 Auburn Bay Blvd SE", "BOARD": "The Calgary Roman Catholic Separate School Division", "GRADES": "Unknown", "Latitude": "50.895513663213784", "Longitude": "-113.96803098305986", "NAME": "St. Gianna", "POSTAL_CODE": "T3M0H7", "PROVINCIAL_CODE": "2328", "TYPE": "Separate School"}, "type": "Feature"}, {"geometry": {"coordinates": [-113.97678385146888, 51.0399113879906], "type": "Point"}, "properties": {"ADDRESS": "1520 - 39 Street S.E.", "BOARD": "The Calgary School Division", "GRADES": "Elementary", "Latitude": "51.0399113879906", "Longitude": "-113.97678385146888", "NAME": "Patrick Airlie", "POSTAL_CODE": "T2A1H9", "PROVINCIAL_CODE": "9327", "TYPE": "Public School"}, "type": "Feature"}, {"geometry": {"coordinates": [-113.96671748554316, 50.92704873588532], "type": "Point"}, "properties": {"ADDRESS": "679 Prestwick Cir. SE", "BOARD": "The Calgary School Division", "GRADES": "Elementary", "Latitude": "50.92704873588532", "Longitude": "-113.96671748554316", "NAME": "McKenzie Towne", "POSTAL_CODE": "T2Z0V3", "PROVINCIAL_CODE": "1463", "TYPE": "Public School"}, "type": "Feature"}, {"geometry": {"coordinates": [-114.07874097705144, 50.97543776970401], "type": "Point"}, "properties": {"ADDRESS": "111 Haddon Road S.W.", "BOARD": "The Calgary Roman Catholic Separate School Division", "GRADES": "Senior High", "Latitude": "50.97543776970401", "Longitude": "-114.07874097705144", "NAME": "Bishop Grandin High", "POSTAL_CODE": "T2V2Y2", "PROVINCIAL_CODE": "8901", "TYPE": "Separate School"}, "type": "Feature"}, {"geometry": {"coordinates": [-113.86774569469964, 51.05863392955397], "type": "Point"}, "properties": {"ADDRESS": "28 Hart Estates Blvd. NE", "BOARD": "The Canadian Reformed School Society of Calgary", "GRADES": "Elementary/Junior High/Senior High", "Latitude": "51.05863392955397", "Longitude": "-113.86774569469964", "NAME": "Tyndale Christian", "POSTAL_CODE": "T1X0L3", "PROVINCIAL_CODE": "9984", "TYPE": "Private School"}, "type": "Feature"}, {"geometry": {"coordinates": [-114.0389180825648, 51.0351393071435], "type": "Point"}, "properties": {"ADDRESS": "1010 - 21 Avenue S.E.", "BOARD": "The Calgary Roman Catholic Separate School Division", "GRADES": "Elementary/Junior High/Senior High", "Latitude": "51.0351393071435", "Longitude": "-114.0389180825648", "NAME": "St. Anne Academic Centre", "POSTAL_CODE": "T2G1N2", "PROVINCIAL_CODE": "8906", "TYPE": "Separate School"}, "type": "Feature"}, {"geometry": {"coordinates": [-114.0614347688689, 50.94073672753453], "type": "Point"}, "properties": {"ADDRESS": "2500 Lake Bonavista Drive S.E.", "BOARD": "The Calgary School Division", "GRADES": "Elementary/Junior High", "Latitude": "50.94073672753453", "Longitude": "-114.0614347688689", "NAME": "Nickle", "POSTAL_CODE": "T2J2Y6", "PROVINCIAL_CODE": "9654", "TYPE": "Public School"}, "type": "Feature"}, {"geometry": {"coordinates": [-113.97527782957785, 51.03005455728048], "type": "Point"}, "properties": {"ADDRESS": "4105 - 26 Avenue S.E.", "BOARD": "The Calgary School Division", "GRADES": "Elementary", "Latitude": "51.03005455728048", "Longitude": "-113.97527782957785", "NAME": "Valley View", "POSTAL_CODE": "T2B0C6", "PROVINCIAL_CODE": "9330", "TYPE": "Public School"}, "type": "Feature"}, {"geometry": {"coordinates": [-114.05669326024136, 51.04287050666238], "type": "Point"}, "properties": {"ADDRESS": "206, 315 - 10 Avenue S.E.", "BOARD": "The Calgary School Division", "GRADES": "Senior High", "Latitude": "51.04287050666238", "Longitude": "-114.05669326024136", "NAME": "Discovering Choices", "POSTAL_CODE": "T2G0W2", "PROVINCIAL_CODE": "9868", "TYPE": "Public School"}, "type": "Feature"}, {"geometry": {"coordinates": [-114.04087754808961, 50.93517859980567], "type": "Point"}, "properties": {"ADDRESS": "1711 Lake Bonavista Drive S.E.", "BOARD": "The Calgary School Division", "GRADES": "Elementary", "Latitude": "50.93517859980567", "Longitude": "-114.04087754808961", "NAME": "Andrew Sibbald", "POSTAL_CODE": "T2J2X9", "PROVINCIAL_CODE": "9336", "TYPE": "Public School"}, "type": "Feature"}, {"geometry": {"coordinates": [-113.94522078882876, 51.045624869971036], "type": "Point"}, "properties": {"ADDRESS": "6226 Penbrooke Drive S.E.", "BOARD": "The Calgary School Division", "GRADES": "Elementary", "Latitude": "51.045624869971036", "Longitude": "-113.94522078882876", "NAME": "G.W. Skene", "POSTAL_CODE": "T2A6M7", "PROVINCIAL_CODE": "9351", "TYPE": "Public School"}, "type": "Feature"}, {"geometry": {"coordinates": [-114.10410656293693, 51.139150846548524], "type": "Point"}, "properties": {"ADDRESS": "327 Sandarac Drive N.W.", "BOARD": "The Calgary Roman Catholic Separate School Division", "GRADES": "Elementary", "Latitude": "51.139150846548524", "Longitude": "-114.10410656293693", "NAME": "Monsignor Neville Anderson", "POSTAL_CODE": "T3K4B2", "PROVINCIAL_CODE": "8554", "TYPE": "Separate School"}, "type": "Feature"}, {"geometry": {"coordinates": [-114.07805940986351, 51.09317274628622], "type": "Point"}, "properties": {"ADDRESS": "719-44 Ave NW", "BOARD": "Foundations for the Future Charter Academy Charter School Society", "GRADES": "Elementary", "Latitude": "51.09317274628622", "Longitude": "-114.07805940986351", "NAME": "Northwest Elementary Campus", "POSTAL_CODE": "T2K0J5", "PROVINCIAL_CODE": "1350", "TYPE": "Charter"}, "type": "Feature"}, {"geometry": {"coordinates": [-114.08754537727738, 50.88374151674002], "type": "Point"}, "properties": {"ADDRESS": "376 Silverado Boulevard SW", "BOARD": "School of East Indian Languages and Performing Arts of Calgary", "GRADES": "Unknown", "Latitude": "50.88374151674002", "Longitude": "-114.08754537727738", "NAME": "School of East Indian Languages and Performing Arts", "POSTAL_CODE": "T2X0N9", "PROVINCIAL_CODE": "1750", "TYPE": "Private School"}, "type": "Feature"}, {"geometry": {"coordinates": [-114.15499749200283, 51.02351140240388], "type": "Point"}, "properties": {"ADDRESS": "4725 - 33 Avenue S.W.", "BOARD": "The Calgary School Division", "GRADES": "Elementary", "Latitude": "51.02351140240388", "Longitude": "-114.15499749200283", "NAME": "Glenbrook", "POSTAL_CODE": "T3E3V1", "PROVINCIAL_CODE": "9122", "TYPE": "Public School"}, "type": "Feature"}, {"geometry": {"coordinates": [-114.18175305777368, 51.11986616559314], "type": "Point"}, "properties": {"ADDRESS": "7811 Ranchview Drive N.W.", "BOARD": "The Calgary Roman Catholic Separate School Division", "GRADES": "Elementary", "Latitude": "51.11986616559314", "Longitude": "-114.18175305777368", "NAME": "St. Rita", "POSTAL_CODE": "T3G2B3", "PROVINCIAL_CODE": "8547", "TYPE": "Separate School"}, "type": "Feature"}, {"geometry": {"coordinates": [-114.13575842481704, 51.00037352179326], "type": "Point"}, "properties": {"ADDRESS": "5915 Lewis Drive S.W.", "BOARD": "Connect Charter School Society", "GRADES": "Elementary/Junior High", "Latitude": "51.00037352179326", "Longitude": "-114.13575842481704", "NAME": "Connect Charter", "POSTAL_CODE": "T3E5Z4", "PROVINCIAL_CODE": "335", "TYPE": "Charter"}, "type": "Feature"}, {"geometry": {"coordinates": [-114.06491320568084, 51.046824030044775], "type": "Point"}, "properties": {"ADDRESS": "130 - 7 Avenue S.W.", "BOARD": "The Calgary School Division", "GRADES": "Unknown", "Latitude": "51.046824030044775", "Longitude": "-114.06491320568084", "NAME": "W.H.Cushing Workplace", "POSTAL_CODE": "T2P1M6", "PROVINCIAL_CODE": "9387", "TYPE": "Public School"}, "type": "Feature"}, {"geometry": {"coordinates": [-113.93048288719478, 51.0774246581365], "type": "Point"}, "properties": {"ADDRESS": "7400 California Blvd., N.E.", "BOARD": "The Calgary School Division", "GRADES": "Elementary", "Latitude": "51.0774246581365", "Longitude": "-113.93048288719478", "NAME": "Monterey Park", "POSTAL_CODE": "T1Y6R2", "PROVINCIAL_CODE": "538", "TYPE": "Public School"}, "type": "Feature"}, {"geometry": {"coordinates": [-114.19437774862719, 51.109246762473006], "type": "Point"}, "properties": {"ADDRESS": "7318 Silver Springs Blvd NW.", "BOARD": "The Calgary Roman Catholic Separate School Division", "GRADES": "Elementary", "Latitude": "51.109246762473006", "Longitude": "-114.19437774862719", "NAME": "St. Sylvester", "POSTAL_CODE": "T3B4N1", "PROVINCIAL_CODE": "8537", "TYPE": "Separate School"}, "type": "Feature"}, {"geometry": {"coordinates": [-114.06139516454988, 51.1206473585467], "type": "Point"}, "properties": {"ADDRESS": "427 - 78 Avenue N.E.", "BOARD": "The Calgary School Division", "GRADES": "Elementary", "Latitude": "51.1206473585467", "Longitude": "-114.06139516454988", "NAME": "Alex Munro", "POSTAL_CODE": "T2K0R9", "PROVINCIAL_CODE": "9261", "TYPE": "Public School"}, "type": "Feature"}, {"geometry": {"coordinates": [-114.01903473833345, 51.03436199575539], "type": "Point"}, "properties": {"ADDRESS": "1921 - 9 Avenue S.E.", "BOARD": "The Calgary School Division", "GRADES": "Elementary", "Latitude": "51.03436199575539", "Longitude": "-114.01903473833345", "NAME": "Colonel Walker", "POSTAL_CODE": "T2G0V3", "PROVINCIAL_CODE": "9602", "TYPE": "Public School"}, "type": "Feature"}, {"geometry": {"coordinates": [-114.07939291470615, 51.131745631212304], "type": "Point"}, "properties": {"ADDRESS": "95 Bermuda Road N.W.", "BOARD": "The Calgary School Division", "GRADES": "Elementary", "Latitude": "51.131745631212304", "Longitude": "-114.07939291470615", "NAME": "Beddington Heights", "POSTAL_CODE": "T3K2J6", "PROVINCIAL_CODE": "9372", "TYPE": "Public School"}, "type": "Feature"}, {"geometry": {"coordinates": [-114.06163955901133, 50.97309981986913], "type": "Point"}, "properties": {"ADDRESS": "9019 Fairmount Dr.  S.E.", "BOARD": "The Calgary School Division", "GRADES": "Unknown", "Latitude": "50.97309981986913", "Longitude": "-114.06163955901133", "NAME": "CLS Lord Beaverbrook Writing Centre", "POSTAL_CODE": "T2H0Z4", "PROVINCIAL_CODE": "2245", "TYPE": "Public School"}, "type": "Feature"}, {"geometry": {"coordinates": [-114.00941407937988, 51.05300228573233], "type": "Point"}, "properties": {"ADDRESS": "", "BOARD": "", "GRADES": "", "Latitude": "51.05300228573233", "Longitude": "-114.00941407937988", "NAME": "SAIT - Mayland Heights Campus", "POSTAL_CODE": "T2E0A7", "PROVINCIAL_CODE": "", "TYPE": "Post Secondary"}, "type": "Feature"}, {"geometry": {"coordinates": [-113.97066403346369, 51.07526966806715], "type": "Point"}, "properties": {"ADDRESS": "155 Rundlehill Drive N.E.", "BOARD": "The Calgary School Division", "GRADES": "Junior High", "Latitude": "51.07526966806715", "Longitude": "-113.97066403346369", "NAME": "Dr. Gordon Higgins", "POSTAL_CODE": "T1Y2W9", "PROVINCIAL_CODE": "9346", "TYPE": "Public School"}, "type": "Feature"}, {"geometry": {"coordinates": [-114.1399900255147, 51.10011269545306], "type": "Point"}, "properties": {"ADDRESS": "5220 Northland Drive N.W.", "BOARD": "The Calgary School Division", "GRADES": "Senior High", "Latitude": "51.10011269545306", "Longitude": "-114.1399900255147", "NAME": "Sir Winston Churchill High", "POSTAL_CODE": "T2L2J6", "PROVINCIAL_CODE": "9857", "TYPE": "Public School"}, "type": "Feature"}, {"geometry": {"coordinates": [-114.06609142025192, 51.061489799005365], "type": "Point"}, "properties": {"ADDRESS": "1019 1 St NW", "BOARD": "The Calgary School Division", "GRADES": "Senior High", "Latitude": "51.061489799005365", "Longitude": "-114.06609142025192", "NAME": "Crescent Heights High", "POSTAL_CODE": "T2M2S2", "PROVINCIAL_CODE": "9815", "TYPE": "Public School"}, "type": "Feature"}, {"geometry": {"coordinates": [-114.07928272233974, 51.15771115650426], "type": "Point"}, "properties": {"ADDRESS": "11616 Panorama Hills Blvd NW", "BOARD": "The Calgary Roman Catholic Separate School Division", "GRADES": "Elementary", "Latitude": "51.15771115650426", "Longitude": "-114.07928272233974", "NAME": "St. Jerome Elementary", "POSTAL_CODE": "T3K5S3", "PROVINCIAL_CODE": "1340", "TYPE": "Separate School"}, "type": "Feature"}, {"geometry": {"coordinates": [-114.05211722125307, 50.91442040220934], "type": "Point"}, "properties": {"ADDRESS": "121 Midlake Boulevard S.E.", "BOARD": "The Calgary Roman Catholic Separate School Division", "GRADES": "Elementary", "Latitude": "50.91442040220934", "Longitude": "-114.05211722125307", "NAME": "St. Teresa of Calcutta", "POSTAL_CODE": "T2X1T7", "PROVINCIAL_CODE": "8542", "TYPE": "Separate School"}, "type": "Feature"}, {"geometry": {"coordinates": [-114.20616360617926, 51.133470377570035], "type": "Point"}, "properties": {"ADDRESS": "1500 Arbour Lake Road N.W.", "BOARD": "The Calgary Roman Catholic Separate School Division", "GRADES": "Elementary/Junior High", "Latitude": "51.133470377570035", "Longitude": "-114.20616360617926", "NAME": "St. Ambrose", "POSTAL_CODE": "T3G4X9", "PROVINCIAL_CODE": "390", "TYPE": "Separate School"}, "type": "Feature"}, {"geometry": {"coordinates": [-114.15979968340648, 51.09314462573173], "type": "Point"}, "properties": {"ADDRESS": "4525 - 49 Street N.W.", "BOARD": "The Calgary Roman Catholic Separate School Division", "GRADES": "Elementary/Junior High", "Latitude": "51.09314462573173", "Longitude": "-114.15979968340648", "NAME": "St. Vincent De Paul Elementary Junior High", "POSTAL_CODE": "T3A0K4", "PROVINCIAL_CODE": "8528", "TYPE": "Separate School"}, "type": "Feature"}, {"geometry": {"coordinates": [-114.04141498879153, 51.06473357370605], "type": "Point"}, "properties": {"ADDRESS": "928 Radnor Avenue N.E.", "BOARD": "The Calgary Roman Catholic Separate School Division", "GRADES": "Elementary/Junior High", "Latitude": "51.06473357370605", "Longitude": "-114.04141498879153", "NAME": "St. Alphonsus Elementary Junior High", "POSTAL_CODE": "T2E5H5", "PROVINCIAL_CODE": "8706", "TYPE": "Separate School"}, "type": "Feature"}, {"geometry": {"coordinates": [-113.99904232831223, 51.08611442747151], "type": "Point"}, "properties": {"ADDRESS": "Suite 120 2635 - 37 Avenue", "BOARD": "The Palliser School Division", "GRADES": "Senior High", "Latitude": "51.08611442747151", "Longitude": "-113.99904232831223", "NAME": "Palliser Beyond Borders at Calgary", "POSTAL_CODE": "T1Y5Z6", "PROVINCIAL_CODE": "2000", "TYPE": "Public School"}, "type": "Feature"}, {"geometry": {"coordinates": [-114.15211656431998, 51.051589548502776], "type": "Point"}, "properties": {"ADDRESS": "120 - 45 Street S.W.", "BOARD": "The Calgary School Division", "GRADES": "Elementary", "Latitude": "51.051589548502776", "Longitude": "-114.15211656431998", "NAME": "Wildwood", "POSTAL_CODE": "T3C2B3", "PROVINCIAL_CODE": "9141", "TYPE": "Public School"}, "type": "Feature"}, {"geometry": {"coordinates": [-113.94563587763996, 51.05654329041374], "type": "Point"}, "properties": {"ADDRESS": "6020 - 4 Avenue N.E.", "BOARD": "The Calgary Roman Catholic Separate School Division", "GRADES": "Elementary/Junior High", "Latitude": "51.05654329041374", "Longitude": "-113.94563587763996", "NAME": "St. Martha", "POSTAL_CODE": "T2A4B1", "PROVINCIAL_CODE": "8725", "TYPE": "Separate School"}, "type": "Feature"}, {"geometry": {"coordinates": [-114.18190103907412, 51.02356690676368], "type": "Point"}, "properties": {"ADDRESS": "369 Sienna Park Drive S.W.", "BOARD": "The Calgary School Division", "GRADES": "Elementary", "Latitude": "51.02356690676368", "Longitude": "-114.18190103907412", "NAME": "Battalion Park", "POSTAL_CODE": "T3H4S2", "PROVINCIAL_CODE": "537", "TYPE": "Public School"}, "type": "Feature"}, {"geometry": {"coordinates": [-114.06709661253234, 51.102323120870786], "type": "Point"}, "properties": {"ADDRESS": "5646 Thornton Road N.W.", "BOARD": "The Calgary School Division", "GRADES": "Elementary", "Latitude": "51.102323120870786", "Longitude": "-114.06709661253234", "NAME": "Thorncliffe", "POSTAL_CODE": "T2K3B9", "PROVINCIAL_CODE": "9235", "TYPE": "Public School"}, "type": "Feature"}, {"geometry": {"coordinates": [-114.04496821491277, 50.88296400573551], "type": "Point"}, "properties": {"ADDRESS": "480 Chaparral Drive S.E.", "BOARD": "The Calgary School Division", "GRADES": "Elementary", "Latitude": "50.88296400573551", "Longitude": "-114.04496821491277", "NAME": "Chaparral", "POSTAL_CODE": "T2X3S2", "PROVINCIAL_CODE": "1331", "TYPE": "Public School"}, "type": "Feature"}, {"geometry": {"coordinates": [-114.11223830140213, 51.05319360710658], "type": "Point"}, "properties": {"ADDRESS": "108 - 22 Street N.W.", "BOARD": "The Calgary Roman Catholic Separate School Division", "GRADES": "Junior High", "Latitude": "51.05319360710658", "Longitude": "-114.11223830140213", "NAME": "Madeleine D' Houet Bilingual", "POSTAL_CODE": "T2N2M8", "PROVINCIAL_CODE": "8728", "TYPE": "Separate School"}, "type": "Feature"}, {"geometry": {"coordinates": [-114.11904669688714, 51.01764438107176], "type": "Point"}, "properties": {"ADDRESS": "Building B4 Battleford Ave. SW", "BOARD": "The Palliser School Division", "GRADES": "Elementary/Junior High", "Latitude": "51.01764438107176", "Longitude": "-114.11904669688714", "NAME": "Horizon Leadership Academy", "POSTAL_CODE": "T3E7K9", "PROVINCIAL_CODE": "2164", "TYPE": "Public School"}, "type": "Feature"}, {"geometry": {"coordinates": [-114.13142837423598, 51.05814762026256], "type": "Point"}, "properties": {"ADDRESS": "728 - 32 Street NW", "BOARD": "Westmount Charter School Society", "GRADES": "Elementary", "Latitude": "51.05814762026256", "Longitude": "-114.13142837423598", "NAME": "Westmount Elementary", "POSTAL_CODE": "T2N2V9", "PROVINCIAL_CODE": "1580", "TYPE": "Charter"}, "type": "Feature"}, {"geometry": {"coordinates": [-114.1743440902455, 51.079469412856646], "type": "Point"}, "properties": {"ADDRESS": "3127 Bowwood Drive N.W.", "BOARD": "River Valley School Society", "GRADES": "Elementary", "Latitude": "51.079469412856646", "Longitude": "-114.1743440902455", "NAME": "River Valley", "POSTAL_CODE": "T3B2E7", "PROVINCIAL_CODE": "9921", "TYPE": "Private School"}, "type": "Feature"}, {"geometry": {"coordinates": [-114.10544704958049, 50.96199369993084], "type": "Point"}, "properties": {"ADDRESS": "10340 - 19 Street S.W.", "BOARD": "The Calgary Roman Catholic Separate School Division", "GRADES": "Elementary", "Latitude": "50.96199369993084", "Longitude": "-114.10544704958049", "NAME": "St. Benedict", "POSTAL_CODE": "T2V1R2", "PROVINCIAL_CODE": "8511", "TYPE": "Separate School"}, "type": "Feature"}, {"geometry": {"coordinates": [-114.1139277191071, 51.00651691168754], "type": "Point"}, "properties": {"ADDRESS": "2336 53 Ave SW", "BOARD": "The Calgary School Division", "GRADES": "Unknown", "Latitude": "51.00651691168754", "Longitude": "-114.1139277191071", "NAME": "CLS Lord Shaughnessy Writing Centre", "POSTAL_CODE": "T3E1L2", "PROVINCIAL_CODE": "2247", "TYPE": "Public School"}, "type": "Feature"}, {"geometry": {"coordinates": [-113.94473240405907, 50.917098922858074], "type": "Point"}, "properties": {"ADDRESS": "116 Brightondale Park SE", "BOARD": "The Calgary School Division", "GRADES": "Elementary/Junior High", "Latitude": "50.917098922858074", "Longitude": "-113.94473240405907", "NAME": "Dr. Martha Cohen", "POSTAL_CODE": "T2Z0V1", "PROVINCIAL_CODE": "2070", "TYPE": "Public School"}, "type": "Feature"}, {"geometry": {"coordinates": [-114.05145948026848, 50.985122075718856], "type": "Point"}, "properties": {"ADDRESS": "3,510-77th Ave SE", "BOARD": "Third Academy International Ltd.", "GRADES": "Elementary", "Latitude": "50.985122075718856", "Longitude": "-114.05145948026848", "NAME": "The Third Academy", "POSTAL_CODE": "T2H1C3", "PROVINCIAL_CODE": "31", "TYPE": "Private School"}, "type": "Feature"}, {"geometry": {"coordinates": [-114.12385799387793, 51.09048945085876], "type": "Point"}, "properties": {"ADDRESS": "1231 Northmount Drive N.W.", "BOARD": "The Calgary School Division", "GRADES": "Elementary", "Latitude": "51.09048945085876", "Longitude": "-114.12385799387793", "NAME": "Brentwood", "POSTAL_CODE": "T2L0C9", "PROVINCIAL_CODE": "9204", "TYPE": "Public School"}, "type": "Feature"}, {"geometry": {"coordinates": [-114.12158318595125, 51.01113758331657], "type": "Point"}, "properties": {"ADDRESS": "4700 Richard Road S.W.", "BOARD": "The Southern Francophone Education Region", "GRADES": "Elementary/Junior High/Senior High", "Latitude": "51.01113758331657", "Longitude": "-114.12158318595125", "NAME": "Sainte Marguerite Bourgeoys", "POSTAL_CODE": "T3E6L1", "PROVINCIAL_CODE": "8707", "TYPE": "Francophone"}, "type": "Feature"}, {"geometry": {"coordinates": [-114.08771615458427, 51.04153267872708], "type": "Point"}, "properties": {"ADDRESS": "1121 - 12 Avenue S.W.", "BOARD": "The Calgary School Division", "GRADES": "Elementary", "Latitude": "51.04153267872708", "Longitude": "-114.08771615458427", "NAME": "Connaught", "POSTAL_CODE": "T2R0J8", "PROVINCIAL_CODE": "9114", "TYPE": "Public School"}, "type": "Feature"}, {"geometry": {"coordinates": [-114.25033475797811, 51.11941379223034], "type": "Point"}, "properties": {"ADDRESS": "919 Tuscany Drive NW", "BOARD": "The Calgary Roman Catholic Separate School Division", "GRADES": "Elementary/Junior High", "Latitude": "51.11941379223034", "Longitude": "-114.25033475797811", "NAME": "St. Basil Elementary/Junior High", "POSTAL_CODE": "T3L2T5", "PROVINCIAL_CODE": "1337", "TYPE": "Separate School"}, "type": "Feature"}, {"geometry": {"coordinates": [-114.07556374150774, 51.02527662184848], "type": "Point"}, "properties": {"ADDRESS": "829 Rideau Road S.W.", "BOARD": "The Calgary School Division", "GRADES": "Elementary/Junior High", "Latitude": "51.02527662184848", "Longitude": "-114.07556374150774", "NAME": "Rideau Park", "POSTAL_CODE": "T2S0S2", "PROVINCIAL_CODE": "9610", "TYPE": "Public School"}, "type": "Feature"}, {"geometry": {"coordinates": [-114.11366841075207, 51.00114196235012], "type": "Point"}, "properties": {"ADDRESS": "2227 - 58 Avenue S.W.", "BOARD": "The Calgary Roman Catholic Separate School Division", "GRADES": "Elementary/Junior High", "Latitude": "51.00114196235012", "Longitude": "-114.11366841075207", "NAME": "St. James Elementary Junior High", "POSTAL_CODE": "T3E1N6", "PROVINCIAL_CODE": "8712", "TYPE": "Separate School"}, "type": "Feature"}, {"geometry": {"coordinates": [-114.07607763566237, 51.033361015610076], "type": "Point"}, "properties": {"ADDRESS": "2201 Cliff Street S.W.", "BOARD": "Montessori School of Calgary", "GRADES": "Elementary", "Latitude": "51.033361015610076", "Longitude": "-114.07607763566237", "NAME": "Montessori School of Calgary", "POSTAL_CODE": "T2S2G4", "PROVINCIAL_CODE": "254", "TYPE": "Private School"}, "type": "Feature"}, {"geometry": {"coordinates": [-114.07331692234882, 51.07478657353867], "type": "Point"}, "properties": {"ADDRESS": "2512 - 5 Street N.W.", "BOARD": "The Calgary Roman Catholic Separate School Division", "GRADES": "Elementary/Junior High", "Latitude": "51.07478657353867", "Longitude": "-114.07331692234882", "NAME": "St. Joseph Elementary Junior High", "POSTAL_CODE": "T2M3C7", "PROVINCIAL_CODE": "8713", "TYPE": "Separate School"}, "type": "Feature"}, {"geometry": {"coordinates": [-114.12358261792069, 51.062709800784496], "type": "Point"}, "properties": {"ADDRESS": "Chief Crowfoot School 2634 12 Ave NW", "BOARD": "Maria Montessori Education Centre of Calgary, Ltd.", "GRADES": "Elementary/Junior High", "Latitude": "51.062709800784496", "Longitude": "-114.12358261792069", "NAME": "Maria Montessori", "POSTAL_CODE": "T2N1K6", "PROVINCIAL_CODE": "1410", "TYPE": "Private School"}, "type": "Feature"}, {"geometry": {"coordinates": [-114.20917723339107, 51.134650992250656], "type": "Point"}, "properties": {"ADDRESS": "27 Arbour Crest Drive N.W.", "BOARD": "The Calgary School Division", "GRADES": "Elementary/Junior High", "Latitude": "51.134650992250656", "Longitude": "-114.20917723339107", "NAME": "Arbour Lake Middle", "POSTAL_CODE": "T3G4H3", "PROVINCIAL_CODE": "1330", "TYPE": "Public School"}, "type": "Feature"}, {"geometry": {"coordinates": [-114.14230655126, 51.06407215998721], "type": "Point"}, "properties": {"ADDRESS": "745 - 37 Street N.W.", "BOARD": "Foothills Academy Society", "GRADES": "Elementary/Junior High/Senior High", "Latitude": "51.06407215998721", "Longitude": "-114.14230655126", "NAME": "Foothills Academy", "POSTAL_CODE": "T2N4T1", "PROVINCIAL_CODE": "9917", "TYPE": "Private School"}, "type": "Feature"}, {"geometry": {"coordinates": [-114.14357851083264, 51.12888867329876], "type": "Point"}, "properties": {"ADDRESS": "55 Edgevalley Circle N.W.", "BOARD": "The Calgary School Division", "GRADES": "Elementary", "Latitude": "51.12888867329876", "Longitude": "-114.14357851083264", "NAME": "Edgemont", "POSTAL_CODE": "T3A4X1", "PROVINCIAL_CODE": "9379", "TYPE": "Public School"}, "type": "Feature"}, {"geometry": {"coordinates": [-114.18070747903394, 51.048832562456994], "type": "Point"}, "properties": {"ADDRESS": "300 Strathcona Drive S.W.", "BOARD": "The Calgary Roman Catholic Separate School Division", "GRADES": "Elementary", "Latitude": "51.048832562456994", "Longitude": "-114.18070747903394", "NAME": "John Costello Catholic", "POSTAL_CODE": "T3H1N9", "PROVINCIAL_CODE": "8558", "TYPE": "Separate School"}, "type": "Feature"}, {"geometry": {"coordinates": [-113.93897805382171, 51.10140502271283], "type": "Point"}, "properties": {"ADDRESS": "1420 Falconridge Drive N.E.", "BOARD": "The Calgary Roman Catholic Separate School Division", "GRADES": "Elementary/Junior High", "Latitude": "51.10140502271283", "Longitude": "-113.93897805382171", "NAME": "St. John XXIII", "POSTAL_CODE": "T3J2C3", "PROVINCIAL_CODE": "8726", "TYPE": "Separate School"}, "type": "Feature"}, {"geometry": {"coordinates": [-114.0931371839602, 51.059294766380475], "type": "Point"}, "properties": {"ADDRESS": "1418 - 7 Avenue N.W.", "BOARD": "The Calgary School Division", "GRADES": "Elementary", "Latitude": "51.059294766380475", "Longitude": "-114.0931371839602", "NAME": "Hillhurst", "POSTAL_CODE": "T2N0Z2", "PROVINCIAL_CODE": "9218", "TYPE": "Public School"}, "type": "Feature"}, {"geometry": {"coordinates": [-114.21424236160475, 51.05848922422676], "type": "Point"}, "properties": {"ADDRESS": "8903 Wentworth Avenue SW", "BOARD": "The Calgary School Division", "GRADES": "Elementary/Junior High", "Latitude": "51.05848922422676", "Longitude": "-114.21424236160475", "NAME": "West Ridge", "POSTAL_CODE": "T3H5N9", "PROVINCIAL_CODE": "2087", "TYPE": "Public School"}, "type": "Feature"}, {"geometry": {"coordinates": [-114.08385249036205, 50.95569541335409], "type": "Point"}, "properties": {"ADDRESS": "10910 Elbow Drive S.W.", "BOARD": "The Calgary Roman Catholic Separate School Division", "GRADES": "Elementary/Junior High", "Latitude": "50.95569541335409", "Longitude": "-114.08385249036205", "NAME": "St. Stephen", "POSTAL_CODE": "T2W1G6", "PROVINCIAL_CODE": "8719", "TYPE": "Separate School"}, "type": "Feature"}, {"geometry": {"coordinates": [-114.11780138719229, 51.165095970776946], "type": "Point"}, "properties": {"ADDRESS": "30 Evanscove Circle NW", "BOARD": "The Calgary School Division", "GRADES": "Elementary", "Latitude": "51.165095970776946", "Longitude": "-114.11780138719229", "NAME": "Kenneth D. Taylor", "POSTAL_CODE": "T3P0A1", "PROVINCIAL_CODE": "2088", "TYPE": "Public School"}, "type": "Feature"}, {"geometry": {"coordinates": [-114.12298360081277, 51.03936376742357], "type": "Point"}, "properties": {"ADDRESS": "1704 - 26 Street S.W.", "BOARD": "The Calgary School Division", "GRADES": "Elementary", "Latitude": "51.03936376742357", "Longitude": "-114.12298360081277", "NAME": "Alex Ferguson", "POSTAL_CODE": "T3C1K5", "PROVINCIAL_CODE": "9101", "TYPE": "Public School"}, "type": "Feature"}, {"geometry": {"coordinates": [-114.07004566673658, 51.111477016264935], "type": "Point"}, "properties": {"ADDRESS": "6600 - 4 Street N.W.", "BOARD": "The Calgary School Division", "GRADES": "Junior High", "Latitude": "51.111477016264935", "Longitude": "-114.07004566673658", "NAME": "Sir John A Macdonald", "POSTAL_CODE": "T2K1C2", "PROVINCIAL_CODE": "9652", "TYPE": "Public School"}, "type": "Feature"}, {"geometry": {"coordinates": [-114.08284033402592, 51.07207021510708], "type": "Point"}, "properties": {"ADDRESS": "#206, 315 10 avenue  S.E.", "BOARD": "The Calgary School Division", "GRADES": "Senior High", "Latitude": "51.07207021510708", "Longitude": "-114.08284033402592", "NAME": "Project Trust", "POSTAL_CODE": "T2M4P6", "PROVINCIAL_CODE": "9599", "TYPE": "Public School"}, "type": "Feature"}, {"geometry": {"coordinates": [-114.07477041533735, 51.09981372607247], "type": "Point"}, "properties": {"ADDRESS": "226 Northmount Drive N.W.", "BOARD": "The Calgary School Division", "GRADES": "Elementary", "Latitude": "51.09981372607247", "Longitude": "-114.07477041533735", "NAME": "Colonel Sanders", "POSTAL_CODE": "T2K3G5", "PROVINCIAL_CODE": "1053", "TYPE": "Public School"}, "type": "Feature"}, {"geometry": {"coordinates": [-114.10385874563634, 50.90156631764898], "type": "Point"}, "properties": {"ADDRESS": "99 Bridlewood Road SW", "BOARD": "The Calgary Roman Catholic Separate School Division", "GRADES": "Elementary/Junior High", "Latitude": "50.90156631764898", "Longitude": "-114.10385874563634", "NAME": "Monsignor J. J. O'Brien", "POSTAL_CODE": "T2Y4J5", "PROVINCIAL_CODE": "589", "TYPE": "Separate School"}, "type": "Feature"}, {"geometry": {"coordinates": [-114.08797438412913, 51.085351749105335], "type": "Point"}, "properties": {"ADDRESS": "640 Northmount Drive N.W.", "BOARD": "The Calgary School Division", "GRADES": "Elementary", "Latitude": "51.085351749105335", "Longitude": "-114.08797438412913", "NAME": "Cambrian Heights", "POSTAL_CODE": "T2K3J5", "PROVINCIAL_CODE": "9208", "TYPE": "Public School"}, "type": "Feature"}, {"geometry": {"coordinates": [-113.96007584998752, 50.92150965182896], "type": "Point"}, "properties": {"ADDRESS": "225 Prestwick Ave SE", "BOARD": "The Calgary Roman Catholic Separate School Division", "GRADES": "Elementary/Junior High", "Latitude": "50.92150965182896", "Longitude": "-113.96007584998752", "NAME": "St. Albert the Great", "POSTAL_CODE": "T2Z3X3", "PROVINCIAL_CODE": "1336", "TYPE": "Separate School"}, "type": "Feature"}, {"geometry": {"coordinates": [-113.96483866624698, 51.04338455761498], "type": "Point"}, "properties": {"ADDRESS": "1212 - 47 Street S.E.", "BOARD": "The Calgary School Division", "GRADES": "Elementary/Junior High", "Latitude": "51.04338455761498", "Longitude": "-113.96483866624698", "NAME": "Ernest Morrow", "POSTAL_CODE": "T2A1R3", "PROVINCIAL_CODE": "9644", "TYPE": "Public School"}, "type": "Feature"}, {"geometry": {"coordinates": [-114.04770729105564, 51.059905406243594], "type": "Point"}, "properties": {"ADDRESS": "950 6th St. NE", "BOARD": "The Calgary School Division", "GRADES": "Elementary/Junior High", "Latitude": "51.059905406243594", "Longitude": "-114.04770729105564", "NAME": "Stanley Jones", "POSTAL_CODE": "T2E8M3", "PROVINCIAL_CODE": "9233", "TYPE": "Public School"}, "type": "Feature"}, {"geometry": {"coordinates": [-113.96820605888279, 50.87442918409296], "type": "Point"}, "properties": {"ADDRESS": "41 Cranston Gate SE", "BOARD": "The Calgary Roman Catholic Separate School Division", "GRADES": "Elementary", "Latitude": "50.87442918409296", "Longitude": "-113.96820605888279", "NAME": "Our Lady of the Rosary", "POSTAL_CODE": "T3M0W7", "PROVINCIAL_CODE": "2081", "TYPE": "Separate School"}, "type": "Feature"}, {"geometry": {"coordinates": [-114.06648017184716, 51.06788182136437], "type": "Point"}, "properties": {"ADDRESS": "220 - 16 Avenue N.W.", "BOARD": "The Calgary School Division", "GRADES": "Elementary/Junior High", "Latitude": "51.06788182136437", "Longitude": "-114.06648017184716", "NAME": "Balmoral", "POSTAL_CODE": "T2M0H4", "PROVINCIAL_CODE": "9601", "TYPE": "Public School"}, "type": "Feature"}, {"geometry": {"coordinates": [-114.06173831297495, 51.04956496190062], "type": "Point"}, "properties": {"ADDRESS": "#270, 328 Centre Street S.E.", "BOARD": "Alberta Chung Wah School Society", "GRADES": "Senior High", "Latitude": "51.04956496190062", "Longitude": "-114.06173831297495", "NAME": "Alberta Chung Wah", "POSTAL_CODE": "T2G4X6", "PROVINCIAL_CODE": "1020", "TYPE": "Private School"}, "type": "Feature"}], "type": "FeatureCollection"}